Category Name,Camera Name,View ID,X,Y,Z,heading,pitch,TrackIR Enabled,Smooth Transition,HeadShake,RetainMouseLookPosition, Enable Temporary Positioning,Enable Linear Transition,Linear Transition Frames,Enable Auto Advance,Limit TrackIR, Max TrackIR X,Max TrackIR Y,Max TrackIR Z,Min TrackIR X,Min TrackIR Y,Min TrackIR Z,Zoom,FOV,Enable FOV,Smooth Camera Joins, Enable Track Heading, Enable Track Pitch, CGY Offset, CGZ Offset, Enable Level Camera, Enable View Axis, Enable External Camera, Enable Cineflex Camera, Enable Free Camera, Initial Movement Range, Enable Bezier Transition, Run Code,Transition Seconds,Hidden Camera,X-Camera Version,Default FOV,Aircraft,Author,Camera File Version,Category Index,Manual Enable, Latitude,Longitude, Elevation, X-Plane 9 Chase View, roll, Target Following Camera, Scenic Flyer GA Panel, Scenic Flyer Glass Panel, Cinema Verite, CGX Offset, Hide Yoke, Enable Camera Axis, Enable XPRealistic, Enable RealView, Disable 3D Cockpit Zoom, AGL Camera, Height ABove AGL (Meters),Circle View, Transition Delay, Script ID 
Cockpit,Pilot View,1,-0.496350,5.627448,-25.640577,1.047578,339.112366,FALSE,TRUE,FALSE,TRUE,TRUE,FALSE,0,FALSE,FALSE,0.000000,0.000000,0.000000,0.000000,0.000000,0.000000,1.000000,60.000000,FALSE,FALSE,FALSE,FALSE,0.000000,0.000000,FALSE,FALSE,FALSE,FALSE,FALSE,1,FALSE,14493,0.0,FALSE,2.4,104.846817,B742_PW_Felis, ,2021-10-05 17:21:17 ,0,FALSE,0,0,0,FALSE,0.000000,FALSE,FALSE,FALSE,FALSE,0.000000,1,FALSE,TRUE,FALSE,FALSE,FALSE,0.000000,FALSE,0.0,0
Cockpit,Lower Pedestal,7,-0.022145,5.645203,-25.346680,0.082855,283.958038,FALSE,TRUE,FALSE,TRUE,TRUE,FALSE,0,FALSE,FALSE,0.000000,0.000000,0.000000,0.000000,0.000000,0.000000,1.000000,60.000000,FALSE,FALSE,FALSE,FALSE,0.000000,0.000000,FALSE,FALSE,FALSE,FALSE,FALSE,1,FALSE,14493,0.5,FALSE,2.4,104.846817,B742_PW_Felis, ,2021-10-05 17:21:17 ,0,FALSE,0,0,0,FALSE,0.000000,FALSE,FALSE,FALSE,FALSE,0.000000,0,FALSE,FALSE,FALSE,FALSE,FALSE,0.000000,FALSE,0.0,0
Cockpit,First Officer,0,0.491608,5.723780,-25.637428,0.104675,347.499512,FALSE,TRUE,FALSE,TRUE,TRUE,FALSE,0,FALSE,FALSE,0.000000,0.000000,0.000000,0.000000,0.000000,0.000000,1.000000,60.000000,FALSE,FALSE,FALSE,FALSE,0.000000,0.000000,FALSE,FALSE,FALSE,FALSE,FALSE,1,FALSE,14493,0.5,FALSE,2.4,104.846817,B742_PW_Felis, ,2021-10-05 17:21:17 ,0,FALSE,0,0,0,FALSE,0.000000,FALSE,FALSE,FALSE,FALSE,0.000000,0,FALSE,FALSE,FALSE,FALSE,FALSE,0.000000,FALSE,0.0,0
Cockpit,Left Window,0,-0.378713,5.714596,-25.809004,-68.552002,-20.664333,FALSE,TRUE,FALSE,TRUE,TRUE,FALSE,0,FALSE,FALSE,0.000000,0.000000,0.000000,0.000000,0.000000,0.000000,1.000000,60.000000,FALSE,FALSE,FALSE,FALSE,0.000000,0.000000,FALSE,FALSE,FALSE,FALSE,FALSE,1,FALSE,14493,0.5,FALSE,2.4,104.846817,B742_PW_Felis, ,2021-10-05 17:21:17 ,0,FALSE,0,0,0,FALSE,0.000000,FALSE,FALSE,FALSE,FALSE,0.000000,0,FALSE,FALSE,FALSE,FALSE,FALSE,0.000000,FALSE,0.0,0
Cockpit,Overhead,2,-0.088891,5.357503,-25.679653,0.043549,64.520866,FALSE,TRUE,FALSE,TRUE,TRUE,FALSE,0,FALSE,FALSE,0.000000,0.000000,0.000000,0.000000,0.000000,0.000000,1.000000,60.000000,FALSE,FALSE,FALSE,FALSE,0.000000,0.000000,FALSE,FALSE,FALSE,FALSE,FALSE,1,FALSE,14493,0.5,FALSE,2.4,104.846817,B742_PW_Felis, ,2021-10-05 17:21:17 ,0,FALSE,0,0,0,FALSE,0.000000,FALSE,FALSE,FALSE,FALSE,0.000000,1,FALSE,FALSE,FALSE,FALSE,FALSE,0.000000,FALSE,0.0,0
Cockpit,Flight Eng Station,5,-0.037083,5.645286,-24.705147,82.719955,1.016536,FALSE,TRUE,FALSE,TRUE,TRUE,FALSE,0,FALSE,FALSE,0.000000,0.000000,0.000000,0.000000,0.000000,0.000000,1.000000,60.000000,FALSE,FALSE,FALSE,FALSE,0.000000,0.000000,FALSE,FALSE,FALSE,FALSE,FALSE,1,FALSE,14493,0.5,FALSE,2.4,104.846817,B742_PW_Felis, ,2021-10-05 17:21:17 ,0,FALSE,0,0,0,FALSE,0.000000,FALSE,FALSE,FALSE,FALSE,0.000000,1,FALSE,FALSE,FALSE,FALSE,FALSE,0.000000,FALSE,0.0,0
Cockpit,EFB,6,-0.783009,5.512197,-25.942427,300.139526,326.797363,FALSE,TRUE,FALSE,TRUE,TRUE,FALSE,0,FALSE,FALSE,0.000000,0.000000,0.000000,0.000000,0.000000,0.000000,1.000000,60.000000,FALSE,FALSE,FALSE,FALSE,0.000000,0.000000,FALSE,FALSE,FALSE,FALSE,FALSE,1,FALSE,14493,0.0,FALSE,2.4,104.846817,B742_PW_Felis, ,2021-10-05 17:21:17 ,0,FALSE,0,0,0,FALSE,0.000000,FALSE,FALSE,FALSE,FALSE,0.000000,0,FALSE,FALSE,FALSE,FALSE,FALSE,0.000000,FALSE,0.0,0
Cockpit,INS #1,10,-0.277647,5.371721,-26.112616,1.360480,291.764679,FALSE,TRUE,FALSE,TRUE,TRUE,FALSE,0,FALSE,FALSE,0.000000,0.000000,0.000000,0.000000,0.000000,0.000000,1.000000,60.000000,FALSE,FALSE,FALSE,FALSE,0.000000,0.000000,FALSE,FALSE,FALSE,FALSE,FALSE,1,FALSE,14493,0.0,FALSE,2.4,104.846817,B742_PW_Felis, ,2021-10-05 17:21:17 ,0,FALSE,0,0,0,FALSE,0.000000,FALSE,FALSE,FALSE,FALSE,0.000000,1,FALSE,FALSE,FALSE,FALSE,FALSE,0.000000,FALSE,0.0,0
Cockpit,Zoom Pilot,8,-0.526900,5.678531,-25.644011,14.965129,329.934631,FALSE,TRUE,FALSE,TRUE,TRUE,FALSE,0,FALSE,FALSE,0.000000,0.000000,0.000000,0.000000,0.000000,0.000000,1.000000,60.000000,FALSE,FALSE,FALSE,FALSE,0.000000,0.000000,FALSE,FALSE,FALSE,FALSE,FALSE,1,FALSE,14493,0.0,FALSE,2.4,104.846817,B742_PW_Felis, ,2021-10-05 17:21:17 ,0,FALSE,0,0,0,FALSE,0.000000,FALSE,FALSE,FALSE,FALSE,0.000000,1,FALSE,FALSE,FALSE,FALSE,FALSE,0.000000,FALSE,0.0,0
Cockpit,Engine Gauges,9,0.086320,5.509251,-25.865631,1.487186,338.090851,FALSE,TRUE,FALSE,TRUE,TRUE,FALSE,0,FALSE,FALSE,0.000000,0.000000,0.000000,0.000000,0.000000,0.000000,1.000000,60.000000,FALSE,FALSE,FALSE,FALSE,0.000000,0.000000,FALSE,FALSE,FALSE,FALSE,FALSE,1,FALSE,14493,0.0,FALSE,2.4,104.846817,B742_PW_Felis, ,2021-10-05 17:21:17 ,0,FALSE,0,0,0,FALSE,0.000000,FALSE,FALSE,FALSE,FALSE,0.000000,1,FALSE,FALSE,FALSE,FALSE,FALSE,0.000000,FALSE,0.0,0
Cockpit,Circuit Breakers,0,-0.512686,6.008714,-23.959625,86.382729,331.790222,FALSE,TRUE,FALSE,TRUE,TRUE,FALSE,0,FALSE,FALSE,0.000000,0.000000,0.000000,0.000000,0.000000,0.000000,1.000000,60.000000,FALSE,FALSE,FALSE,FALSE,0.000000,0.000000,FALSE,FALSE,FALSE,FALSE,FALSE,1,FALSE,14493,0.5,FALSE,2.4,104.846817,B742_PW_Felis, ,2021-10-05 17:21:17 ,0,FALSE,0,0,0,FALSE,0.000000,FALSE,FALSE,FALSE,FALSE,0.000000,0,FALSE,FALSE,FALSE,FALSE,FALSE,0.000000,FALSE,0.0,0
Cockpit,Pilot Landing,11,-0.488353,5.705208,-25.790325,0.104663,332.941193,FALSE,TRUE,FALSE,TRUE,TRUE,FALSE,0,FALSE,FALSE,0.000000,0.000000,0.000000,0.000000,0.000000,0.000000,1.000000,60.000000,FALSE,FALSE,FALSE,FALSE,0.000000,0.000000,FALSE,FALSE,FALSE,FALSE,FALSE,1,FALSE,14493,0.0,FALSE,2.4,104.846817,B742_PW_Felis, ,2021-10-05 17:21:17 ,0,FALSE,0,0,0,FALSE,0.000000,FALSE,FALSE,FALSE,FALSE,0.000000,1,FALSE,FALSE,FALSE,FALSE,FALSE,0.000000,FALSE,0.0,0
Cockpit,Jumpseat,30,-0.957717,5.595197,-24.084749,48.080414,351.267365,FALSE,TRUE,FALSE,TRUE,TRUE,FALSE,0,FALSE,FALSE,0.000000,0.000000,0.000000,0.000000,0.000000,0.000000,1.000000,60.000000,FALSE,FALSE,FALSE,FALSE,0.000000,0.000000,FALSE,FALSE,FALSE,FALSE,FALSE,1,FALSE,14493,0.5,FALSE,2.4,104.846817,B742_PW_Felis, ,2021-10-05 17:21:17 ,0,FALSE,0,0,0,FALSE,0.000000,FALSE,FALSE,FALSE,FALSE,0.000000,0,FALSE,FALSE,FALSE,FALSE,FALSE,0.000000,FALSE,0.0,0
Cockpit,FE Seat,31,-0.156182,5.677491,-24.607439,78.847855,352.835968,FALSE,TRUE,FALSE,TRUE,TRUE,FALSE,0,FALSE,FALSE,0.000000,0.000000,0.000000,0.000000,0.000000,0.000000,1.000000,60.000000,FALSE,FALSE,FALSE,FALSE,0.000000,0.000000,FALSE,FALSE,FALSE,FALSE,FALSE,1,FALSE,14493,0.5,FALSE,2.4,104.846817,B742_PW_Felis, ,2021-10-05 17:21:17 ,0,FALSE,0,0,0,FALSE,0.000000,FALSE,FALSE,FALSE,FALSE,0.000000,0,FALSE,FALSE,FALSE,FALSE,FALSE,0.000000,FALSE,0.0,0
Cockpit,Pilot Left 45,40,-0.482473,5.752918,-26.014431,322.116302,347.268829,FALSE,TRUE,FALSE,TRUE,TRUE,FALSE,0,FALSE,FALSE,0.000000,0.000000,0.000000,0.000000,0.000000,0.000000,1.000000,60.000000,FALSE,FALSE,FALSE,FALSE,0.000000,0.000000,FALSE,FALSE,FALSE,FALSE,FALSE,1,FALSE,14493,0.0,FALSE,2.4,104.846817,B742_PW_Felis, ,2021-10-05 17:21:17 ,0,FALSE,0,0,0,FALSE,0.000000,FALSE,FALSE,FALSE,FALSE,0.000000,0,FALSE,FALSE,FALSE,FALSE,FALSE,0.000000,FALSE,0.0,0
Cockpit,Pilot Right 45,42,0.169219,5.766220,-26.120693,41.441853,351.393829,FALSE,TRUE,FALSE,TRUE,TRUE,FALSE,0,FALSE,FALSE,0.000000,0.000000,0.000000,0.000000,0.000000,0.000000,1.000000,60.000000,FALSE,FALSE,FALSE,FALSE,0.000000,0.000000,FALSE,FALSE,FALSE,FALSE,FALSE,1,FALSE,14493,0.0,FALSE,2.4,104.846817,B742_PW_Felis, ,2021-10-05 17:21:17 ,0,FALSE,0,0,0,FALSE,0.000000,FALSE,FALSE,FALSE,FALSE,0.000000,0,FALSE,FALSE,FALSE,FALSE,FALSE,0.000000,FALSE,0.0,0
Cockpit,Rear Go Pro,0,-0.747533,6.171999,-24.224186,47.302330,336.359528,FALSE,TRUE,FALSE,TRUE,TRUE,FALSE,0,FALSE,FALSE,0.000000,0.000000,0.000000,0.000000,0.000000,0.000000,1.000000,60.000000,FALSE,FALSE,FALSE,FALSE,0.000000,0.000000,FALSE,FALSE,FALSE,FALSE,FALSE,1,FALSE,14493,0.0,FALSE,2.4,104.846817,B742_PW_Felis, ,2021-10-05 17:21:17 ,0,FALSE,0,0,0,FALSE,0.000000,FALSE,FALSE,FALSE,FALSE,0.000000,0,FALSE,FALSE,FALSE,FALSE,FALSE,0.000000,FALSE,0.0,0
Cockpit,Right Front Go Pro,41,0.592893,5.816705,-25.882961,342.732574,340.308838,FALSE,TRUE,FALSE,TRUE,TRUE,FALSE,0,FALSE,FALSE,0.000000,0.000000,0.000000,0.000000,0.000000,0.000000,1.000000,60.000000,FALSE,FALSE,FALSE,FALSE,0.000000,0.000000,FALSE,FALSE,FALSE,FALSE,FALSE,1,FALSE,14493,0.0,FALSE,2.4,104.846817,B742_PW_Felis, ,2021-10-05 17:21:17 ,0,FALSE,0,0,0,FALSE,0.000000,FALSE,FALSE,FALSE,FALSE,0.000000,0,FALSE,FALSE,FALSE,FALSE,FALSE,0.000000,FALSE,0.0,0
Cockpit,Start Switches,18,-0.407297,5.652109,-25.748861,48.244186,307.234528,FALSE,TRUE,FALSE,TRUE,TRUE,FALSE,0,FALSE,FALSE,0.000000,0.000000,0.000000,0.000000,0.000000,0.000000,1.000000,60.000000,FALSE,FALSE,FALSE,FALSE,0.000000,0.000000,FALSE,FALSE,FALSE,FALSE,FALSE,1,FALSE,14493,0.0,FALSE,2.4,104.846817,B742_PW_Felis, ,2021-10-05 17:21:17 ,0,FALSE,0,0,0,FALSE,0.000000,FALSE,FALSE,FALSE,FALSE,0.000000,0,FALSE,FALSE,FALSE,FALSE,FALSE,0.000000,FALSE,0.0,0
Cockpit,FE - Fuel Panel,32,0.074419,5.644000,-24.714214,91.092041,323.880157,FALSE,TRUE,FALSE,TRUE,TRUE,FALSE,0,FALSE,FALSE,0.000000,0.000000,0.000000,0.000000,0.000000,0.000000,1.000000,60.000000,FALSE,FALSE,FALSE,FALSE,0.000000,0.000000,FALSE,FALSE,FALSE,FALSE,FALSE,1,FALSE,14493,0.5,FALSE,2.4,104.846817,B742_PW_Felis, ,2021-10-05 17:21:17 ,0,FALSE,0,0,0,FALSE,0.000000,FALSE,FALSE,FALSE,FALSE,0.000000,0,FALSE,FALSE,FALSE,FALSE,FALSE,0.000000,FALSE,0.0,0
Cockpit,FO,0,0.319485,5.687921,-25.747740,347.232544,338.039276,FALSE,TRUE,FALSE,TRUE,TRUE,FALSE,0,FALSE,FALSE,0.000000,0.000000,0.000000,0.000000,0.000000,0.000000,1.000000,60.000000,FALSE,FALSE,FALSE,FALSE,0.000000,0.000000,FALSE,FALSE,FALSE,FALSE,FALSE,1,FALSE,14493,0.0,FALSE,2.4,104.846817,B742_PW_Felis, ,2021-10-05 17:21:17 ,0,FALSE,0,0,0,FALSE,0.000000,FALSE,FALSE,FALSE,FALSE,0.000000,0,FALSE,FALSE,FALSE,FALSE,FALSE,0.000000,FALSE,0.0,0
Cockpit,Rear Jumpseat,0,-0.903974,5.668330,-24.140041,51.115273,355.787842,FALSE,TRUE,FALSE,TRUE,TRUE,FALSE,0,FALSE,FALSE,0.000000,0.000000,0.000000,0.000000,0.000000,0.000000,1.000000,60.000000,FALSE,FALSE,FALSE,FALSE,0.000000,0.000000,FALSE,FALSE,FALSE,FALSE,FALSE,1,FALSE,14493,0.5,FALSE,2.4,104.846817,B742_PW_Felis, ,2021-10-05 17:21:17 ,0,FALSE,0,0,0,FALSE,0.000000,FALSE,FALSE,FALSE,FALSE,0.000000,0,FALSE,FALSE,FALSE,FALSE,FALSE,0.000000,FALSE,0.0,0
Cockpit,Jettison Panel,0,0.272324,5.530682,-24.164112,88.580421,326.664490,FALSE,TRUE,FALSE,TRUE,TRUE,FALSE,0,FALSE,FALSE,0.000000,0.000000,0.000000,0.000000,0.000000,0.000000,1.000000,60.000000,FALSE,FALSE,FALSE,FALSE,0.000000,0.000000,FALSE,FALSE,FALSE,FALSE,FALSE,1,FALSE,14493,0.5,FALSE,2.4,104.846817,B742_PW_Felis, ,2021-10-05 17:21:17 ,0,FALSE,0,0,0,FALSE,0.000000,FALSE,FALSE,FALSE,FALSE,0.000000,0,FALSE,FALSE,FALSE,FALSE,FALSE,0.000000,FALSE,0.0,0
Cockpit,Engine Start,20,-0.460137,5.689285,-25.661785,87.181610,318.708740,FALSE,TRUE,FALSE,TRUE,TRUE,FALSE,0,FALSE,FALSE,0.000000,0.000000,0.000000,0.000000,0.000000,0.000000,1.000000,60.000000,FALSE,FALSE,FALSE,FALSE,0.000000,0.000000,FALSE,FALSE,FALSE,FALSE,FALSE,1,FALSE,14493,0.0,FALSE,2.4,104.846817,B742_PW_Felis, ,2021-10-05 17:21:17 ,0,FALSE,0,0,0,FALSE,0.000000,FALSE,FALSE,FALSE,FALSE,0.000000,1,FALSE,FALSE,FALSE,FALSE,FALSE,0.000000,FALSE,0.0,0
Cockpit,FE Engine Start,22,0.074419,5.644000,-24.714214,22.231592,344.598236,FALSE,TRUE,FALSE,TRUE,TRUE,FALSE,0,FALSE,FALSE,0.000000,0.000000,0.000000,0.000000,0.000000,0.000000,1.000000,60.000000,FALSE,FALSE,FALSE,FALSE,0.000000,0.000000,FALSE,FALSE,FALSE,FALSE,FALSE,1,FALSE,14493,0.5,FALSE,2.4,104.846817,B742_PW_Felis, ,2021-10-05 17:21:17 ,0,FALSE,0,0,0,FALSE,0.000000,FALSE,FALSE,FALSE,FALSE,0.000000,1,FALSE,FALSE,FALSE,FALSE,FALSE,0.000000,FALSE,0.0,0
Cockpit,FE Low,34,0.074419,5.644000,-24.714214,90.987389,313.358002,FALSE,TRUE,FALSE,TRUE,TRUE,FALSE,0,FALSE,FALSE,0.000000,0.000000,0.000000,0.000000,0.000000,0.000000,1.000000,60.000000,FALSE,FALSE,FALSE,FALSE,0.000000,0.000000,FALSE,FALSE,FALSE,FALSE,FALSE,1,FALSE,14493,0.5,FALSE,2.4,104.846817,B742_PW_Felis, ,2021-10-05 17:21:17 ,0,FALSE,0,0,0,FALSE,0.000000,FALSE,FALSE,FALSE,FALSE,0.000000,1,FALSE,FALSE,FALSE,FALSE,FALSE,0.000000,FALSE,0.0,0
Cockpit,INS Lower,26,-0.028045,5.380710,-25.666113,359.581390,276.601318,FALSE,TRUE,FALSE,TRUE,TRUE,FALSE,0,FALSE,FALSE,0.000000,0.000000,0.000000,0.000000,0.000000,0.000000,1.000000,60.000000,FALSE,FALSE,FALSE,FALSE,0.000000,0.000000,FALSE,FALSE,FALSE,FALSE,FALSE,1,FALSE,14493,0.0,FALSE,2.4,104.846817,B742_PW_Felis, ,2021-10-05 17:21:17 ,0,FALSE,0,0,0,FALSE,0.000000,FALSE,FALSE,FALSE,FALSE,0.000000,1,FALSE,FALSE,FALSE,FALSE,FALSE,0.000000,FALSE,0.0,0
Cockpit,Right Panel,33,0.217240,5.342469,-26.077860,0.941864,345.359528,FALSE,TRUE,FALSE,TRUE,TRUE,FALSE,0,FALSE,FALSE,0.000000,0.000000,0.000000,0.000000,0.000000,0.000000,1.000000,60.000000,FALSE,FALSE,FALSE,FALSE,0.000000,0.000000,FALSE,FALSE,FALSE,FALSE,FALSE,1,FALSE,14493,0.0,FALSE,2.4,104.846817,B742_PW_Felis, ,2021-10-05 17:21:17 ,0,FALSE,0,0,0,FALSE,0.000000,FALSE,FALSE,FALSE,FALSE,0.000000,1,FALSE,FALSE,FALSE,FALSE,FALSE,0.000000,FALSE,0.0,0
Cockpit,Cruise Go Pro,0,0.610279,5.837677,-25.938833,336.034882,345.509857,FALSE,TRUE,FALSE,TRUE,TRUE,FALSE,0,FALSE,FALSE,0.000000,0.000000,0.000000,0.000000,0.000000,0.000000,1.000000,60.000000,FALSE,FALSE,FALSE,FALSE,0.000000,0.000000,FALSE,FALSE,FALSE,FALSE,FALSE,1,FALSE,14493,0.0,FALSE,2.4,104.846817,B742_PW_Felis, ,2021-10-05 17:21:17 ,0,FALSE,0,0,0,FALSE,0.000000,FALSE,FALSE,FALSE,FALSE,0.000000,0,FALSE,FALSE,FALSE,FALSE,FALSE,0.000000,FALSE,0.0,0
Cockpit,Throttle,4,-0.496049,5.704707,-25.677408,38.093933,301.891327,FALSE,TRUE,FALSE,TRUE,TRUE,FALSE,0,FALSE,FALSE,0.000000,0.000000,0.000000,0.000000,0.000000,0.000000,1.000000,60.000000,FALSE,FALSE,FALSE,FALSE,0.000000,0.000000,FALSE,FALSE,FALSE,FALSE,FALSE,1,FALSE,14493,0.0,FALSE,2.4,104.846817,B742_PW_Felis, ,2021-10-05 17:21:17 ,0,FALSE,0,0,0,FALSE,0.000000,FALSE,FALSE,FALSE,FALSE,0.000000,1,FALSE,TRUE,FALSE,FALSE,FALSE,0.000000,FALSE,0.0,0
Cockpit,Glance Lights,25,-0.496049,5.704707,-25.677408,39.035797,3.590680,FALSE,TRUE,FALSE,TRUE,TRUE,FALSE,0,FALSE,FALSE,0.000000,0.000000,0.000000,0.000000,0.000000,0.000000,1.000000,60.000000,FALSE,FALSE,FALSE,FALSE,0.000000,0.000000,FALSE,FALSE,FALSE,FALSE,FALSE,1,FALSE,14493,0.0,FALSE,2.4,104.846817,B742_PW_Felis, ,2021-10-05 17:21:17 ,0,FALSE,0,0,0,FALSE,0.000000,FALSE,FALSE,FALSE,FALSE,0.000000,1,FALSE,TRUE,FALSE,FALSE,FALSE,0.000000,FALSE,0.0,0
Cockpit,Lights,24,-0.317351,5.644076,-25.695057,33.384789,24.733288,FALSE,TRUE,FALSE,TRUE,TRUE,FALSE,0,FALSE,FALSE,0.000000,0.000000,0.000000,0.000000,0.000000,0.000000,1.000000,60.000000,FALSE,FALSE,FALSE,FALSE,0.000000,0.000000,FALSE,FALSE,FALSE,FALSE,FALSE,1,FALSE,14493,0.0,FALSE,2.4,104.846817,B742_PW_Felis, ,2021-10-05 17:21:17 ,0,FALSE,0,0,0,FALSE,0.000000,FALSE,FALSE,FALSE,FALSE,0.000000,1,FALSE,TRUE,FALSE,FALSE,FALSE,0.000000,FALSE,0.0,0
Cockpit,Landing,0,-0.480920,5.690512,-25.664343,0.838276,337.151581,FALSE,TRUE,FALSE,TRUE,TRUE,FALSE,0,FALSE,FALSE,0.000000,0.000000,0.000000,0.000000,0.000000,0.000000,1.000000,60.000000,FALSE,FALSE,FALSE,FALSE,0.000000,0.000000,FALSE,FALSE,FALSE,FALSE,FALSE,1,FALSE,14493,0.0,FALSE,2.4,104.846817,B742_PW_Felis, ,2021-10-05 17:21:17 ,0,FALSE,0,0,0,FALSE,0.000000,FALSE,FALSE,FALSE,FALSE,0.000000,1,FALSE,TRUE,FALSE,FALSE,FALSE,0.000000,FALSE,0.0,0
External,Circle,15,0.146193,21.665771,68.837776,359.878326,342.529327,FALSE,TRUE,FALSE,TRUE,TRUE,FALSE,0,FALSE,FALSE,0.000000,0.000000,0.000000,0.000000,0.000000,0.000000,1.000000,60.000000,FALSE,FALSE,TRUE,TRUE,0.000000,0.000000,TRUE,FALSE,TRUE,FALSE,FALSE,3,FALSE,14493,0.5,FALSE,2.4,104.846817,B742_PW_Felis, ,2021-10-05 17:21:17 ,1,FALSE,0,0,0,FALSE,0.000000,FALSE,FALSE,FALSE,FALSE,0.000000,0,FALSE,FALSE,FALSE,FALSE,FALSE,0.000000,TRUE,0.0,0
External,Tail Cam,44,-0.003476,15.092628,33.985039,0.635777,321.986115,FALSE,TRUE,FALSE,TRUE,TRUE,FALSE,0,FALSE,FALSE,0.000000,0.000000,0.000000,0.000000,0.000000,0.000000,1.000000,60.000000,FALSE,FALSE,TRUE,TRUE,0.000000,0.000000,FALSE,FALSE,FALSE,FALSE,FALSE,1,FALSE,14493,0.5,FALSE,2.4,104.846817,B742_PW_Felis, ,2021-10-05 17:21:17 ,1,FALSE,0,0,0,FALSE,0.000000,FALSE,FALSE,FALSE,FALSE,0.000000,0,FALSE,FALSE,FALSE,FALSE,FALSE,0.000000,FALSE,0.0,0
External,Left Wing In,46,-41.025902,7.583428,17.199249,78.983955,352.430145,FALSE,TRUE,FALSE,TRUE,TRUE,FALSE,0,FALSE,FALSE,0.000000,0.000000,0.000000,0.000000,0.000000,0.000000,1.000000,60.000000,FALSE,FALSE,FALSE,FALSE,0.000000,0.000000,FALSE,FALSE,TRUE,FALSE,FALSE,2,FALSE,14493,0.5,FALSE,2.4,104.846817,B742_PW_Felis, ,2021-10-05 17:21:17 ,1,FALSE,0,0,0,FALSE,0.000000,FALSE,FALSE,FALSE,FALSE,0.000000,0,FALSE,FALSE,FALSE,FALSE,FALSE,0.000000,FALSE,0.0,0
External,Right Wing In,0,36.677292,6.533998,14.800793,276.146729,353.083740,FALSE,TRUE,FALSE,TRUE,TRUE,FALSE,0,FALSE,FALSE,0.000000,0.000000,0.000000,0.000000,0.000000,0.000000,1.000000,60.000000,FALSE,FALSE,FALSE,FALSE,0.000000,0.000000,FALSE,FALSE,TRUE,FALSE,FALSE,2,FALSE,14493,0.5,FALSE,2.4,104.846817,B742_PW_Felis, ,2021-10-05 17:21:17 ,1,FALSE,0,0,0,FALSE,0.000000,FALSE,FALSE,FALSE,FALSE,0.000000,0,FALSE,FALSE,FALSE,FALSE,FALSE,0.000000,FALSE,0.0,0
External,Left Wing Out,16,-2.611642,5.138487,-0.601289,245.284454,341.088684,FALSE,FALSE,FALSE,TRUE,TRUE,FALSE,0,FALSE,FALSE,0.000000,0.000000,0.000000,0.000000,0.000000,0.000000,1.000000,60.000000,FALSE,FALSE,FALSE,FALSE,0.000000,0.000000,FALSE,FALSE,TRUE,FALSE,FALSE,2,FALSE,14493,0.5,FALSE,2.4,104.846817,B742_PW_Felis, ,2021-10-05 17:21:17 ,1,FALSE,0,0,0,FALSE,0.000000,FALSE,FALSE,FALSE,FALSE,0.000000,0,FALSE,FALSE,FALSE,FALSE,FALSE,0.000000,FALSE,0.0,0
External,Right Wing Out,17,2.876975,4.599105,-0.529134,103.053711,342.495514,FALSE,FALSE,FALSE,TRUE,TRUE,FALSE,0,FALSE,FALSE,0.000000,0.000000,0.000000,0.000000,0.000000,0.000000,1.000000,60.000000,FALSE,FALSE,FALSE,FALSE,0.000000,0.000000,FALSE,FALSE,TRUE,FALSE,FALSE,2,FALSE,14493,0.5,FALSE,2.4,104.846817,B742_PW_Felis, ,2021-10-05 17:21:17 ,1,FALSE,0,0,0,FALSE,0.000000,FALSE,FALSE,FALSE,FALSE,0.000000,0,FALSE,FALSE,FALSE,FALSE,FALSE,0.000000,FALSE,0.0,0
External,AGL 1000,0,0.000000,-5540.491699,48.837940,334.569763,355.032684,FALSE,FALSE,FALSE,TRUE,TRUE,FALSE,0,FALSE,FALSE,0.000000,0.000000,0.000000,0.000000,0.000000,0.000000,1.000000,60.000000,FALSE,FALSE,FALSE,FALSE,0.000000,0.000000,FALSE,FALSE,TRUE,FALSE,FALSE,2,FALSE,14493,0.5,FALSE,2.4,104.846817,B742_PW_Felis, ,2021-10-05 17:21:17 ,1,FALSE,0,0,0,FALSE,0.000000,TRUE,FALSE,FALSE,FALSE,0.000000,0,FALSE,FALSE,FALSE,FALSE,TRUE,1000.000000,FALSE,0.0,0
External,Under,0,-0.003476,15.092628,33.985039,0.635777,321.986115,FALSE,TRUE,FALSE,TRUE,TRUE,FALSE,0,FALSE,FALSE,0.000000,0.000000,0.000000,0.000000,0.000000,0.000000,1.000000,60.000000,FALSE,FALSE,TRUE,TRUE,0.000000,0.000000,FALSE,FALSE,FALSE,FALSE,FALSE,2,FALSE,14493,0.5,FALSE,2.4,104.846817,B742_PW_Felis, ,2021-10-05 17:21:17 ,1,FALSE,0,0,0,FALSE,0.000000,FALSE,FALSE,FALSE,TRUE,0.000000,0,FALSE,FALSE,FALSE,FALSE,FALSE,0.000000,FALSE,0.0,0
External,Tow,19,6.410077,-0.104513,-19.440552,308.909149,344.195648,FALSE,TRUE,FALSE,TRUE,TRUE,FALSE,0,FALSE,FALSE,0.000000,0.000000,0.000000,0.000000,0.000000,0.000000,1.000000,60.000000,FALSE,FALSE,FALSE,FALSE,0.000000,0.000000,TRUE,FALSE,TRUE,FALSE,FALSE,3,FALSE,14493,0.5,FALSE,2.4,104.846817,B742_PW_Felis, ,2021-10-05 17:21:17 ,1,FALSE,0,0,0,FALSE,0.000000,FALSE,FALSE,FALSE,FALSE,0.000000,0,FALSE,FALSE,FALSE,FALSE,FALSE,0.000000,FALSE,0.0,0
External,Taxi,21,-0.196341,16.360809,33.864941,0.332191,334.214294,FALSE,TRUE,FALSE,TRUE,TRUE,FALSE,0,FALSE,FALSE,0.000000,0.000000,0.000000,0.000000,0.000000,0.000000,1.000000,60.000000,FALSE,FALSE,TRUE,TRUE,0.000000,0.000000,TRUE,FALSE,TRUE,FALSE,FALSE,3,FALSE,14493,0.5,FALSE,2.4,104.846817,B742_PW_Felis, ,2021-10-05 17:21:17 ,1,FALSE,0,0,0,FALSE,0.000000,FALSE,FALSE,FALSE,FALSE,0.000000,0,FALSE,FALSE,FALSE,FALSE,FALSE,0.000000,FALSE,0.0,0
Cabin,Cockpit,0,-0.528713,5.967533,-25.343534,157.813980,346.521179,FALSE,TRUE,FALSE,TRUE,TRUE,FALSE,0,FALSE,FALSE,0.000000,0.000000,0.000000,0.000000,0.000000,0.000000,1.000000,60.000000,FALSE,FALSE,FALSE,FALSE,0.000000,0.000000,FALSE,FALSE,FALSE,FALSE,FALSE,2,FALSE,14493,2.0,FALSE,2.4,104.846817,B742_PW_Felis, ,2021-10-05 17:21:17 ,2,FALSE,0,0,0,FALSE,0.000000,FALSE,FALSE,FALSE,FALSE,0.000000,0,FALSE,FALSE,FALSE,FALSE,FALSE,0.000000,FALSE,0.0,0
Cabin,Cockpit Door Out,0,-0.501520,6.010153,-23.893871,172.674454,342.896179,FALSE,TRUE,FALSE,TRUE,TRUE,FALSE,0,FALSE,FALSE,0.000000,0.000000,0.000000,0.000000,0.000000,0.000000,1.000000,60.000000,FALSE,FALSE,FALSE,FALSE,0.000000,0.000000,FALSE,FALSE,FALSE,FALSE,FALSE,2,FALSE,14493,2.0,FALSE,2.4,104.846817,B742_PW_Felis, ,2021-10-05 17:21:17 ,2,FALSE,0,0,0,FALSE,0.000000,FALSE,FALSE,FALSE,FALSE,0.000000,0,FALSE,FALSE,FALSE,FALSE,FALSE,0.000000,FALSE,0.0,0
Cabin,Top of Stairs,50,-0.167076,6.058188,-19.769409,167.337250,333.896179,FALSE,TRUE,FALSE,TRUE,TRUE,FALSE,0,FALSE,FALSE,0.000000,0.000000,0.000000,0.000000,0.000000,0.000000,1.000000,60.000000,FALSE,FALSE,FALSE,FALSE,0.000000,0.000000,FALSE,FALSE,FALSE,FALSE,FALSE,2,FALSE,14493,2.0,FALSE,2.4,104.846817,B742_PW_Felis, ,2021-10-05 17:21:17 ,2,FALSE,0,0,0,FALSE,0.000000,FALSE,FALSE,FALSE,FALSE,0.000000,0,FALSE,FALSE,FALSE,FALSE,FALSE,0.000000,FALSE,0.0,0
Cabin,Upper Deck Seat,0,-1.369631,5.689849,-15.578803,16.011662,343.660065,FALSE,TRUE,FALSE,TRUE,TRUE,FALSE,0,FALSE,FALSE,0.000000,0.000000,0.000000,0.000000,0.000000,0.000000,1.000000,60.000000,FALSE,FALSE,FALSE,FALSE,0.000000,0.000000,FALSE,FALSE,FALSE,FALSE,FALSE,2,FALSE,14493,2.0,FALSE,2.4,104.846817,B742_PW_Felis, ,2021-10-05 17:21:17 ,2,FALSE,0,0,0,FALSE,0.000000,FALSE,FALSE,FALSE,FALSE,0.000000,0,FALSE,FALSE,FALSE,FALSE,FALSE,0.000000,FALSE,0.0,0
Cabin,Stairs,0,0.157897,5.655361,-20.901358,14.127940,316.410065,FALSE,TRUE,FALSE,TRUE,TRUE,FALSE,0,FALSE,FALSE,0.000000,0.000000,0.000000,0.000000,0.000000,0.000000,1.000000,60.000000,FALSE,FALSE,FALSE,FALSE,0.000000,0.000000,FALSE,FALSE,FALSE,FALSE,FALSE,2,FALSE,14493,2.0,FALSE,2.4,104.846817,B742_PW_Felis, ,2021-10-05 17:21:17 ,2,FALSE,0,0,0,FALSE,0.000000,FALSE,FALSE,FALSE,FALSE,0.000000,0,FALSE,FALSE,FALSE,FALSE,FALSE,0.000000,FALSE,0.0,0
Cabin,Bottom of Stairs,0,-1.292448,3.271161,-21.413568,31.604662,350.160065,FALSE,TRUE,FALSE,TRUE,TRUE,FALSE,0,FALSE,FALSE,0.000000,0.000000,0.000000,0.000000,0.000000,0.000000,1.000000,60.000000,FALSE,FALSE,FALSE,FALSE,0.000000,0.000000,FALSE,FALSE,FALSE,FALSE,FALSE,2,FALSE,14493,2.0,FALSE,2.4,104.846817,B742_PW_Felis, ,2021-10-05 17:21:17 ,2,FALSE,0,0,0,FALSE,0.000000,FALSE,FALSE,FALSE,FALSE,0.000000,0,FALSE,FALSE,FALSE,FALSE,FALSE,0.000000,FALSE,0.0,0
Cabin,First Class,0,2.285325,3.214611,-23.723879,317.341980,356.851013,FALSE,TRUE,FALSE,TRUE,TRUE,FALSE,0,FALSE,FALSE,0.000000,0.000000,0.000000,0.000000,0.000000,0.000000,1.000000,60.000000,FALSE,FALSE,FALSE,FALSE,0.000000,0.000000,FALSE,FALSE,FALSE,FALSE,FALSE,2,FALSE,14493,2.0,FALSE,2.4,104.846817,B742_PW_Felis, ,2021-10-05 17:21:17 ,2,FALSE,0,0,0,FALSE,0.000000,FALSE,FALSE,FALSE,FALSE,0.000000,0,FALSE,FALSE,FALSE,FALSE,FALSE,0.000000,FALSE,0.0,0
Cabin,Middle Galley,49,-1.660047,3.138607,-12.345311,73.692863,350.288025,FALSE,TRUE,FALSE,TRUE,TRUE,FALSE,0,FALSE,FALSE,0.000000,0.000000,0.000000,0.000000,0.000000,0.000000,1.000000,60.000000,FALSE,FALSE,FALSE,FALSE,0.000000,0.000000,FALSE,FALSE,FALSE,FALSE,FALSE,2,FALSE,14493,2.0,FALSE,2.4,104.846817,B742_PW_Felis, ,2021-10-05 17:21:17 ,2,FALSE,0,0,0,FALSE,0.000000,FALSE,FALSE,FALSE,FALSE,0.000000,0,FALSE,FALSE,FALSE,FALSE,FALSE,0.000000,FALSE,0.0,0
Cabin,Left Engine Seat,43,-3.128543,2.749957,-9.727437,245.896774,351.470428,FALSE,TRUE,FALSE,TRUE,TRUE,FALSE,0,FALSE,FALSE,0.000000,0.000000,0.000000,0.000000,0.000000,0.000000,1.000000,60.000000,FALSE,FALSE,FALSE,FALSE,0.000000,0.000000,FALSE,FALSE,FALSE,FALSE,FALSE,2,FALSE,14493,2.0,FALSE,2.4,104.846817,B742_PW_Felis, ,2021-10-05 17:21:17 ,2,FALSE,0,0,0,FALSE,0.000000,FALSE,FALSE,FALSE,FALSE,0.000000,0,FALSE,FALSE,FALSE,FALSE,FALSE,0.000000,FALSE,0.0,0
Cabin,Right Engine Seat,45,3.110569,2.831632,-11.213631,97.373466,340.176636,FALSE,TRUE,FALSE,TRUE,TRUE,FALSE,0,FALSE,FALSE,0.000000,0.000000,0.000000,0.000000,0.000000,0.000000,1.000000,60.000000,FALSE,FALSE,FALSE,FALSE,0.000000,0.000000,FALSE,FALSE,FALSE,FALSE,FALSE,2,FALSE,14493,2.0,FALSE,2.4,104.846817,B742_PW_Felis, ,2021-10-05 17:21:17 ,2,FALSE,0,0,0,FALSE,0.000000,FALSE,FALSE,FALSE,FALSE,0.000000,0,FALSE,FALSE,FALSE,FALSE,FALSE,0.000000,FALSE,0.0,0
Cabin,Back Seat,47,-2.420285,3.203851,22.228256,27.104727,346.274475,FALSE,TRUE,FALSE,TRUE,TRUE,FALSE,0,FALSE,FALSE,0.000000,0.000000,0.000000,0.000000,0.000000,0.000000,1.000000,60.000000,FALSE,FALSE,FALSE,FALSE,0.000000,0.000000,FALSE,FALSE,FALSE,FALSE,FALSE,2,FALSE,14493,2.0,FALSE,2.4,104.846817,B742_PW_Felis, ,2021-10-05 17:21:17 ,2,FALSE,0,0,0,FALSE,0.000000,FALSE,FALSE,FALSE,FALSE,0.000000,0,FALSE,FALSE,FALSE,FALSE,FALSE,0.000000,FALSE,0.0,0
Cabin,Crappy Middle Seat,48,0.236659,2.879186,-9.086995,311.755829,350.588135,FALSE,TRUE,FALSE,TRUE,TRUE,FALSE,0,FALSE,FALSE,0.000000,0.000000,0.000000,0.000000,0.000000,0.000000,1.000000,60.000000,FALSE,FALSE,FALSE,FALSE,0.000000,0.000000,FALSE,FALSE,FALSE,FALSE,FALSE,2,FALSE,14493,2.0,FALSE,2.4,104.846817,B742_PW_Felis, ,2021-10-05 17:21:17 ,2,FALSE,0,0,0,FALSE,0.000000,FALSE,FALSE,FALSE,FALSE,0.000000,0,FALSE,FALSE,FALSE,FALSE,FALSE,0.000000,FALSE,0.0,0
Cabin,Window Seat,0,-2.763025,3.154893,-14.662918,29.234558,358.095917,FALSE,TRUE,FALSE,TRUE,TRUE,FALSE,0,FALSE,FALSE,0.000000,0.000000,0.000000,0.000000,0.000000,0.000000,1.000000,60.000000,FALSE,FALSE,FALSE,FALSE,0.000000,0.000000,FALSE,FALSE,FALSE,FALSE,FALSE,1,FALSE,14493,2.0,FALSE,2.4,104.846817,B742_PW_Felis, ,2021-10-05 17:21:17 ,2,FALSE,0,0,0,FALSE,0.000000,FALSE,FALSE,FALSE,FALSE,0.000000,0,FALSE,FALSE,FALSE,FALSE,FALSE,0.000000,FALSE,0.0,0
Ground,Cargo #1 Door,0,9.792301,-0.476476,-21.925035,233.857437,6.605655,FALSE,TRUE,FALSE,TRUE,TRUE,FALSE,0,FALSE,FALSE,0.000000,0.000000,0.000000,0.000000,0.000000,0.000000,1.000000,60.000000,FALSE,FALSE,FALSE,FALSE,0.000000,0.000000,TRUE,FALSE,TRUE,FALSE,FALSE,3,FALSE,14493,0.5,FALSE,2.4,104.846817,B742_PW_Felis, ,2021-10-05 17:21:17 ,3,FALSE,0,0,0,FALSE,0.000000,FALSE,FALSE,FALSE,FALSE,0.000000,0,FALSE,FALSE,FALSE,FALSE,FALSE,0.000000,FALSE,0.0,0
Ground,Cargo #2 Door,0,9.605494,0.163453,18.492903,296.752777,1.638334,FALSE,TRUE,FALSE,TRUE,TRUE,FALSE,0,FALSE,FALSE,0.000000,0.000000,0.000000,0.000000,0.000000,0.000000,1.000000,60.000000,FALSE,FALSE,FALSE,FALSE,0.000000,0.000000,TRUE,FALSE,TRUE,FALSE,FALSE,2,FALSE,14493,0.5,FALSE,2.4,104.846817,B742_PW_Felis, ,2021-10-05 17:21:17 ,3,FALSE,0,0,0,FALSE,0.000000,FALSE,FALSE,FALSE,FALSE,0.000000,0,FALSE,FALSE,FALSE,FALSE,FALSE,0.000000,FALSE,0.0,0
Ground,Pushback,0,4.030170,-0.097377,-23.517645,294.555115,339.285370,FALSE,TRUE,FALSE,TRUE,TRUE,FALSE,0,FALSE,FALSE,0.000000,0.000000,0.000000,0.000000,0.000000,0.000000,1.000000,60.000000,FALSE,FALSE,FALSE,FALSE,0.000000,0.000000,TRUE,FALSE,TRUE,FALSE,FALSE,2,FALSE,14493,0.5,FALSE,2.4,104.846817,B742_PW_Felis, ,2021-10-05 17:21:17 ,3,FALSE,0,0,0,FALSE,0.000000,FALSE,FALSE,FALSE,FALSE,0.000000,0,FALSE,FALSE,FALSE,FALSE,FALSE,0.000000,FALSE,0.0,0
