Category Name,Camera Name,View ID,X,Y,Z,heading,pitch,TrackIR Enabled,Smooth Transition,HeadShake,RetainMouseLookPosition, Enable Temporary Positioning,Enable Linear Transition,Linear Transition Frames,Enable Auto Advance,Limit TrackIR, Max TrackIR X,Max TrackIR Y,Max TrackIR Z,Min TrackIR X,Min TrackIR Y,Min TrackIR Z,Zoom,FOV,Enable FOV,Smooth Camera Joins, Enable Track Heading, Enable Track Pitch, CGY Offset, CGZ Offset, Enable Level Camera, Enable View Axis, Enable External Camera, Enable Cineflex Camera, Enable Free Camera, Initial Movement Range, Enable Bezier Transition, Run Code,Transition Seconds,Hidden Camera,X-Camera Version,Default FOV,Aircraft,Author,Camera File Version,Category Index,Manual Enable, Latitude,Longitude, Elevation, X-Plane 9 Chase View, roll, Target Following Camera, Scenic Flyer GA Panel, Scenic Flyer Glass Panel, Cinema Verite, CGX Offset, Hide Yoke, Enable Camera Axis, Enable XPRealistic, Enable RealView, Disable 3D Cockpit Zoom, AGL Camera, Height ABove AGL (Meters),Circle View, Transition Delay, Script ID 
Cockpit,Pilot View,1,-0.438793,4.444732,-28.885618,0.313965,342.534546,FALSE,TRUE,FALSE,TRUE,TRUE,FALSE,0,FALSE,FALSE,0.000000,0.000000,0.000000,0.000000,0.000000,0.000000,1.000000,60.000000,FALSE,FALSE,FALSE,FALSE,0.000000,0.000000,FALSE,FALSE,FALSE,FALSE,FALSE,1,FALSE,12749,0.0,FALSE,2.4,105.731743,SSG_B748-F_11, ,2021-10-27 09:44:03 ,0,FALSE,0,0,0,FALSE,0.000000,FALSE,FALSE,FALSE,FALSE,0.000000,0,FALSE,TRUE,FALSE,FALSE,FALSE,0.000000,FALSE,0.0,0
Cockpit,EFB,6,-0.776034,4.287108,-29.015841,303.697662,319.541656,FALSE,TRUE,FALSE,TRUE,TRUE,FALSE,0,FALSE,FALSE,0.000000,0.000000,0.000000,0.000000,0.000000,0.000000,1.000000,60.000000,FALSE,FALSE,FALSE,FALSE,0.000000,0.000000,FALSE,FALSE,FALSE,FALSE,FALSE,1,FALSE,12749,0.5,FALSE,2.4,105.731743,SSG_B748-F_11, ,2021-10-27 09:44:03 ,0,FALSE,0,0,0,FALSE,0.000000,FALSE,FALSE,FALSE,FALSE,0.000000,0,FALSE,FALSE,FALSE,FALSE,FALSE,0.000000,FALSE,0.0,0
Cockpit,Overhead,2,-0.133383,4.207200,-29.058176,0.000001,69.666656,FALSE,TRUE,FALSE,TRUE,TRUE,FALSE,0,FALSE,FALSE,0.000000,0.000000,0.000000,0.000000,0.000000,0.000000,1.000000,60.000000,FALSE,FALSE,FALSE,FALSE,0.000000,0.000000,FALSE,FALSE,FALSE,FALSE,FALSE,1,FALSE,12749,0.5,FALSE,2.4,105.731743,SSG_B748-F_11, ,2021-10-27 09:44:03 ,0,FALSE,0,0,0,FALSE,0.000000,FALSE,FALSE,FALSE,FALSE,0.000000,0,FALSE,FALSE,FALSE,FALSE,FALSE,0.000000,FALSE,0.0,0
Cockpit,Quick Look 5,0,-0.350328,4.551204,-28.925472,0.562500,-36.000011,FALSE,TRUE,FALSE,TRUE,TRUE,FALSE,0,FALSE,FALSE,0.000000,0.000000,0.000000,0.000000,0.000000,0.000000,1.000000,60.000000,FALSE,FALSE,FALSE,FALSE,0.000000,0.000000,FALSE,FALSE,FALSE,FALSE,FALSE,1,FALSE,12749,0.5,FALSE,2.4,105.731743,SSG_B748-F_11, ,2021-10-27 09:44:03 ,0,FALSE,0,0,0,FALSE,0.000000,FALSE,FALSE,FALSE,FALSE,0.000000,0,FALSE,FALSE,FALSE,FALSE,FALSE,0.000000,FALSE,0.0,0
Cockpit,FMC,10,-0.240382,4.187973,-29.387041,0.313970,284.459961,FALSE,TRUE,FALSE,TRUE,TRUE,FALSE,0,FALSE,FALSE,0.000000,0.000000,0.000000,0.000000,0.000000,0.000000,1.000000,60.000000,FALSE,FALSE,FALSE,FALSE,0.000000,0.000000,FALSE,FALSE,FALSE,FALSE,FALSE,1,FALSE,12749,0.0,FALSE,2.4,105.731743,SSG_B748-F_11, ,2021-10-27 09:44:03 ,0,FALSE,0,0,0,FALSE,0.000000,FALSE,FALSE,FALSE,FALSE,0.000000,1,FALSE,FALSE,FALSE,FALSE,FALSE,0.000000,FALSE,0.0,0
Cockpit,Throttle,4,-0.440033,4.350113,-28.974382,43.116295,320.000000,FALSE,TRUE,FALSE,TRUE,TRUE,FALSE,0,FALSE,FALSE,0.000000,0.000000,0.000000,0.000000,0.000000,0.000000,1.000000,60.000000,FALSE,FALSE,FALSE,FALSE,0.000000,0.000000,FALSE,FALSE,FALSE,FALSE,FALSE,1,FALSE,12749,0.0,FALSE,2.4,105.731743,SSG_B748-F_11, ,2021-10-27 09:44:03 ,0,FALSE,0,0,0,FALSE,0.000000,FALSE,FALSE,FALSE,FALSE,0.000000,0,FALSE,FALSE,FALSE,FALSE,FALSE,0.000000,FALSE,0.0,0
Cockpit,MFD,9,-0.136484,4.345786,-29.209290,11.776648,323.168152,FALSE,TRUE,FALSE,TRUE,TRUE,FALSE,0,FALSE,FALSE,0.000000,0.000000,0.000000,0.000000,0.000000,0.000000,1.000000,60.000000,FALSE,FALSE,FALSE,FALSE,0.000000,0.000000,FALSE,FALSE,FALSE,FALSE,FALSE,1,FALSE,12749,0.0,FALSE,2.4,105.731743,SSG_B748-F_11, ,2021-10-27 09:44:03 ,0,FALSE,0,0,0,FALSE,0.000000,FALSE,FALSE,FALSE,FALSE,0.000000,0,FALSE,FALSE,FALSE,FALSE,FALSE,0.000000,FALSE,0.0,0
Cockpit,Pedestal,7,-0.016747,4.339277,-28.821344,0.000000,274.500000,FALSE,TRUE,FALSE,TRUE,TRUE,FALSE,0,FALSE,FALSE,0.000000,0.000000,0.000000,0.000000,0.000000,0.000000,1.000000,60.000000,FALSE,FALSE,FALSE,FALSE,0.000000,0.000000,FALSE,FALSE,FALSE,FALSE,FALSE,1,FALSE,12749,0.0,FALSE,2.4,105.731743,SSG_B748-F_11, ,2021-10-27 09:44:03 ,0,FALSE,0,0,0,FALSE,0.000000,FALSE,FALSE,FALSE,FALSE,0.000000,0,FALSE,FALSE,FALSE,FALSE,FALSE,0.000000,FALSE,0.0,0
Cockpit,Pilot Landing,11,-0.462217,4.510517,-29.039116,0.104675,339.250000,FALSE,TRUE,FALSE,TRUE,TRUE,FALSE,0,FALSE,FALSE,0.000000,0.000000,0.000000,0.000000,0.000000,0.000000,1.000000,60.000000,FALSE,FALSE,FALSE,FALSE,0.000000,0.000000,FALSE,FALSE,FALSE,FALSE,FALSE,1,FALSE,12749,0.0,FALSE,2.4,105.731743,SSG_B748-F_11, ,2021-10-27 09:44:03 ,0,FALSE,0,0,0,FALSE,0.000000,FALSE,FALSE,FALSE,FALSE,0.000000,0,FALSE,FALSE,FALSE,FALSE,FALSE,0.000000,FALSE,0.0,0
Cockpit,PFD,8,-0.415553,4.363383,-29.152960,18.209326,327.205078,FALSE,TRUE,FALSE,TRUE,TRUE,FALSE,0,FALSE,FALSE,0.000000,0.000000,0.000000,0.000000,0.000000,0.000000,1.000000,60.000000,FALSE,FALSE,FALSE,FALSE,0.000000,0.000000,FALSE,FALSE,FALSE,FALSE,FALSE,1,FALSE,12749,0.0,FALSE,2.4,105.731743,SSG_B748-F_11, ,2021-10-27 09:44:03 ,0,FALSE,0,0,0,FALSE,0.000000,FALSE,FALSE,FALSE,FALSE,0.000000,0,FALSE,FALSE,FALSE,FALSE,FALSE,0.000000,FALSE,0.0,0
Cockpit,Systems,5,0.069908,4.387010,-29.129744,0.941885,326.375000,FALSE,TRUE,FALSE,TRUE,TRUE,FALSE,0,FALSE,FALSE,0.000000,0.000000,0.000000,0.000000,0.000000,0.000000,1.000000,60.000000,FALSE,FALSE,FALSE,FALSE,0.000000,0.000000,FALSE,FALSE,FALSE,FALSE,FALSE,1,FALSE,12749,0.0,FALSE,2.4,105.731743,SSG_B748-F_11, ,2021-10-27 09:44:03 ,0,FALSE,0,0,0,FALSE,0.000000,FALSE,FALSE,FALSE,FALSE,0.000000,0,FALSE,FALSE,FALSE,FALSE,FALSE,0.000000,FALSE,0.0,0
Cockpit,PIlot 45 Left,30,-0.481427,4.523093,-29.197870,322.744202,345.625000,FALSE,TRUE,FALSE,TRUE,TRUE,FALSE,0,FALSE,FALSE,0.000000,0.000000,0.000000,0.000000,0.000000,0.000000,1.000000,60.000000,FALSE,FALSE,FALSE,FALSE,0.000000,0.000000,FALSE,FALSE,FALSE,FALSE,FALSE,1,FALSE,12749,0.0,FALSE,2.4,105.731743,SSG_B748-F_11, ,2021-10-27 09:44:03 ,0,FALSE,0,0,0,FALSE,0.000000,FALSE,FALSE,FALSE,FALSE,0.000000,0,FALSE,FALSE,FALSE,FALSE,FALSE,0.000000,FALSE,0.0,0
Cockpit,Pilot 45 Right,32,0.218962,4.487985,-29.301022,31.290691,349.375000,FALSE,TRUE,FALSE,TRUE,TRUE,FALSE,0,FALSE,FALSE,0.000000,0.000000,0.000000,0.000000,0.000000,0.000000,1.000000,60.000000,FALSE,FALSE,FALSE,FALSE,0.000000,0.000000,FALSE,FALSE,FALSE,FALSE,FALSE,1,FALSE,12749,0.0,FALSE,2.4,105.731743,SSG_B748-F_11, ,2021-10-27 09:44:03 ,0,FALSE,0,0,0,FALSE,0.000000,FALSE,FALSE,FALSE,FALSE,0.000000,0,FALSE,FALSE,FALSE,FALSE,FALSE,0.000000,FALSE,0.0,0
Cockpit,Cockpit GoPro,31,-0.019557,4.627410,-28.379053,6.174414,343.625000,FALSE,TRUE,FALSE,TRUE,TRUE,FALSE,0,FALSE,FALSE,0.000000,0.000000,0.000000,0.000000,0.000000,0.000000,1.000000,60.000000,FALSE,FALSE,FALSE,FALSE,0.000000,0.000000,FALSE,FALSE,FALSE,FALSE,FALSE,1,FALSE,12749,0.0,FALSE,2.4,105.731743,SSG_B748-F_11, ,2021-10-27 09:44:03 ,0,FALSE,0,0,0,FALSE,0.000000,FALSE,FALSE,FALSE,FALSE,0.000000,0,FALSE,FALSE,FALSE,FALSE,FALSE,0.000000,FALSE,0.0,0
Cockpit,Jumpseat Rear Right,0,0.313741,4.365934,-28.025072,343.828125,343.261383,FALSE,TRUE,FALSE,TRUE,TRUE,FALSE,0,FALSE,FALSE,0.000000,0.000000,0.000000,0.000000,0.000000,0.000000,1.000000,60.000000,FALSE,FALSE,FALSE,FALSE,0.000000,0.000000,FALSE,FALSE,FALSE,FALSE,FALSE,1,FALSE,12749,0.5,FALSE,2.4,105.731743,SSG_B748-F_11, ,2021-10-27 09:44:03 ,0,FALSE,0,0,0,FALSE,0.000000,FALSE,FALSE,FALSE,FALSE,0.000000,0,FALSE,FALSE,FALSE,FALSE,FALSE,0.000000,FALSE,0.0,0
Cockpit,Lights,12,-0.061883,4.255139,-29.297886,359.581421,63.915020,FALSE,TRUE,FALSE,TRUE,TRUE,FALSE,0,FALSE,FALSE,0.000000,0.000000,0.000000,0.000000,0.000000,0.000000,1.000000,60.000000,FALSE,FALSE,FALSE,FALSE,0.000000,0.000000,FALSE,FALSE,FALSE,FALSE,FALSE,1,FALSE,12749,0.5,FALSE,2.4,105.731743,SSG_B748-F_11, ,2021-10-27 09:44:03 ,0,FALSE,0,0,0,FALSE,0.000000,FALSE,FALSE,FALSE,FALSE,0.000000,0,FALSE,FALSE,FALSE,FALSE,FALSE,0.000000,FALSE,0.0,0
Cockpit,Fancyzones,0,0.027101,4.069744,-29.080709,359.790710,341.375000,FALSE,TRUE,FALSE,TRUE,TRUE,FALSE,0,FALSE,FALSE,0.000000,0.000000,0.000000,0.000000,0.000000,0.000000,1.000000,60.000000,FALSE,FALSE,FALSE,FALSE,0.000000,0.000000,FALSE,FALSE,FALSE,FALSE,FALSE,1,FALSE,12749,0.0,FALSE,2.4,105.731743,SSG_B748-F_11, ,2021-10-27 09:44:03 ,0,FALSE,0,0,0,FALSE,0.000000,FALSE,FALSE,FALSE,FALSE,0.000000,0,FALSE,TRUE,FALSE,FALSE,FALSE,0.000000,FALSE,0.0,0
Cockpit,Cruise View,0,-0.436190,4.464808,-29.251829,10.157715,334.678406,FALSE,TRUE,FALSE,TRUE,FALSE,FALSE,0,FALSE,FALSE,0.000000,0.000000,0.000000,0.000000,0.000000,0.000000,1.000000,60.000000,FALSE,FALSE,FALSE,FALSE,0.000000,0.000000,FALSE,FALSE,FALSE,FALSE,FALSE,1,FALSE,12749,0.0,FALSE,2.4,105.731743,SSG_B748-F_11, ,2021-10-27 09:44:03 ,0,FALSE,0,0,0,FALSE,0.000000,FALSE,FALSE,FALSE,FALSE,0.000000,0,FALSE,TRUE,FALSE,FALSE,FALSE,0.000000,FALSE,0.0,0
Cockpit,Look Down,0,-0.378556,4.402768,-29.130354,14.965128,321.784546,FALSE,TRUE,FALSE,TRUE,TRUE,FALSE,0,FALSE,FALSE,0.000000,0.000000,0.000000,0.000000,0.000000,0.000000,1.000000,60.000000,FALSE,FALSE,FALSE,FALSE,0.000000,0.000000,FALSE,FALSE,FALSE,FALSE,FALSE,1,FALSE,12749,0.0,FALSE,2.4,105.731743,SSG_B748-F_11, ,2021-10-27 09:44:03 ,0,FALSE,0,0,0,FALSE,0.000000,FALSE,FALSE,FALSE,FALSE,0.000000,0,FALSE,TRUE,FALSE,FALSE,FALSE,0.000000,FALSE,0.0,0
Cockpit,FMC F.O.,19,0.053387,4.300103,-29.259436,24.069778,312.469177,FALSE,TRUE,FALSE,TRUE,TRUE,FALSE,0,FALSE,FALSE,0.000000,0.000000,0.000000,0.000000,0.000000,0.000000,1.000000,60.000000,FALSE,FALSE,FALSE,FALSE,0.000000,0.000000,FALSE,FALSE,FALSE,FALSE,FALSE,1,FALSE,12749,0.0,FALSE,2.4,105.731743,SSG_B748-F_11, ,2021-10-27 09:44:03 ,0,FALSE,0,0,0,FALSE,0.000000,FALSE,FALSE,FALSE,FALSE,0.000000,0,FALSE,TRUE,FALSE,FALSE,FALSE,0.000000,FALSE,0.0,0
External,Chase,15,0.190229,6.059555,76.589706,359.857697,355.476349,FALSE,FALSE,FALSE,TRUE,TRUE,FALSE,0,FALSE,FALSE,0.000000,0.000000,0.000000,0.000000,0.000000,0.000000,1.000000,60.000000,FALSE,FALSE,TRUE,TRUE,0.000000,0.000000,TRUE,FALSE,TRUE,FALSE,FALSE,2,FALSE,12749,0.5,FALSE,2.4,105.731743,SSG_B748-F_11, ,2021-10-27 09:44:03 ,1,FALSE,0,0,0,FALSE,0.000000,FALSE,FALSE,FALSE,FALSE,0.000000,0,FALSE,FALSE,FALSE,FALSE,FALSE,0.000000,TRUE,0.0,0
External,Engines 3 + 4,0,19.128773,-1.028139,-20.401009,212.126144,1.500000,FALSE,TRUE,FALSE,TRUE,TRUE,FALSE,0,FALSE,FALSE,0.000000,0.000000,0.000000,0.000000,0.000000,0.000000,1.000000,60.000000,FALSE,FALSE,FALSE,FALSE,0.000000,0.000000,FALSE,FALSE,TRUE,FALSE,FALSE,3,FALSE,12749,0.5,FALSE,2.4,105.731743,SSG_B748-F_11, ,2021-10-27 09:44:03 ,1,FALSE,0,0,0,FALSE,0.000000,FALSE,FALSE,FALSE,FALSE,0.000000,0,FALSE,FALSE,FALSE,FALSE,FALSE,0.000000,FALSE,0.0,0
External,Engines 1 + 2,0,-12.911077,-3.727335,-15.204578,163.668121,19.106216,FALSE,TRUE,FALSE,TRUE,TRUE,FALSE,0,FALSE,FALSE,0.000000,0.000000,0.000000,0.000000,0.000000,0.000000,1.000000,60.000000,FALSE,FALSE,FALSE,FALSE,0.000000,0.000000,FALSE,FALSE,TRUE,FALSE,FALSE,2,FALSE,12749,0.5,FALSE,2.4,105.731743,SSG_B748-F_11, ,2021-10-27 09:44:03 ,1,FALSE,0,0,0,FALSE,0.000000,FALSE,FALSE,FALSE,FALSE,0.000000,0,FALSE,FALSE,FALSE,FALSE,FALSE,0.000000,FALSE,0.0,0
External,Left Wing,16,-4.087913,3.050361,2.759370,257.226257,345.250000,FALSE,FALSE,FALSE,TRUE,TRUE,FALSE,0,FALSE,FALSE,0.000000,0.000000,0.000000,0.000000,0.000000,0.000000,1.000000,60.000000,FALSE,FALSE,FALSE,FALSE,0.000000,0.000000,FALSE,FALSE,TRUE,FALSE,FALSE,2,FALSE,12749,0.5,FALSE,2.4,105.731743,SSG_B748-F_11, ,2021-10-27 09:44:03 ,1,FALSE,0,0,0,FALSE,0.000000,FALSE,FALSE,FALSE,FALSE,0.000000,0,FALSE,FALSE,FALSE,FALSE,FALSE,0.000000,FALSE,0.0,0
External,Right Wing,17,2.780328,2.742514,2.771729,98.365791,346.125000,FALSE,FALSE,FALSE,TRUE,TRUE,FALSE,0,FALSE,FALSE,0.000000,0.000000,0.000000,0.000000,0.000000,0.000000,1.000000,60.000000,FALSE,FALSE,FALSE,FALSE,0.000000,0.000000,FALSE,FALSE,TRUE,FALSE,FALSE,2,FALSE,12749,0.5,FALSE,2.4,105.731743,SSG_B748-F_11, ,2021-10-27 09:44:03 ,1,FALSE,0,0,0,FALSE,0.000000,FALSE,FALSE,FALSE,FALSE,0.000000,0,FALSE,FALSE,FALSE,FALSE,FALSE,0.000000,FALSE,0.0,0
External,Front Nose View,0,-1.216504,1.824686,-38.835049,178.205795,357.311218,FALSE,TRUE,FALSE,TRUE,TRUE,FALSE,0,FALSE,FALSE,0.000000,0.000000,0.000000,0.000000,0.000000,0.000000,1.000000,60.000000,FALSE,FALSE,TRUE,TRUE,0.000000,0.000000,TRUE,FALSE,TRUE,FALSE,FALSE,2,FALSE,12749,0.5,FALSE,2.4,105.731743,SSG_B748-F_11, ,2021-10-27 09:44:03 ,1,FALSE,0,0,0,FALSE,0.000000,FALSE,FALSE,FALSE,FALSE,0.000000,0,FALSE,FALSE,FALSE,FALSE,FALSE,0.000000,FALSE,0.0,0
External,Ground View #1,0,7.931679,-3.104841,-31.024244,226.877426,21.589876,FALSE,TRUE,FALSE,TRUE,TRUE,FALSE,0,FALSE,FALSE,0.000000,0.000000,0.000000,0.000000,0.000000,0.000000,1.000000,60.000000,FALSE,FALSE,FALSE,FALSE,0.000000,0.000000,FALSE,FALSE,TRUE,FALSE,FALSE,2,FALSE,12749,0.5,FALSE,2.4,105.731743,SSG_B748-F_11, ,2021-10-27 09:44:03 ,1,FALSE,0,0,0,FALSE,0.000000,FALSE,FALSE,FALSE,FALSE,0.000000,0,FALSE,FALSE,FALSE,FALSE,FALSE,0.000000,FALSE,0.0,0
External,Top Down,0,51.222710,307.507629,299.816986,347.598694,311.410034,FALSE,TRUE,FALSE,TRUE,TRUE,FALSE,0,FALSE,FALSE,0.000000,0.000000,0.000000,0.000000,0.000000,0.000000,1.000000,60.000000,FALSE,FALSE,FALSE,FALSE,0.000000,0.000000,FALSE,FALSE,TRUE,FALSE,FALSE,3,FALSE,12749,0.5,FALSE,2.4,105.731743,SSG_B748-F_11, ,2021-10-27 09:44:03 ,1,FALSE,0,0,0,FALSE,0.000000,FALSE,FALSE,FALSE,FALSE,0.000000,0,FALSE,FALSE,FALSE,FALSE,FALSE,0.000000,FALSE,0.0,0
External,Tow,33,6.918351,-0.667016,-22.802729,295.214630,347.339874,FALSE,FALSE,FALSE,TRUE,TRUE,FALSE,0,FALSE,FALSE,0.000000,0.000000,0.000000,0.000000,0.000000,0.000000,1.000000,60.000000,FALSE,FALSE,FALSE,FALSE,0.000000,0.000000,FALSE,FALSE,TRUE,FALSE,FALSE,2,FALSE,12749,0.5,FALSE,2.4,105.731743,SSG_B748-F_11, ,2021-10-27 09:44:03 ,1,FALSE,0,0,0,FALSE,0.000000,FALSE,FALSE,FALSE,FALSE,0.000000,0,FALSE,FALSE,FALSE,FALSE,FALSE,0.000000,FALSE,0.0,0
External,AGL 500,0,0.000000,-8348.240234,52.089859,0.000000,0.000000,FALSE,TRUE,FALSE,TRUE,TRUE,FALSE,0,FALSE,FALSE,0.000000,0.000000,0.000000,0.000000,0.000000,0.000000,1.000000,60.000000,FALSE,FALSE,FALSE,FALSE,0.000000,0.000000,FALSE,FALSE,TRUE,FALSE,FALSE,2,FALSE,12749,0.5,FALSE,2.4,105.731743,SSG_B748-F_11, ,2021-10-27 09:44:03 ,1,FALSE,0,0,0,FALSE,0.000000,FALSE,FALSE,FALSE,FALSE,0.000000,0,FALSE,FALSE,FALSE,FALSE,TRUE,500.000000,FALSE,0.0,0
External,Taxi Cam,34,-0.159799,16.864723,38.337353,0.238831,336.255341,FALSE,FALSE,FALSE,TRUE,TRUE,FALSE,0,FALSE,FALSE,0.000000,0.000000,0.000000,0.000000,0.000000,0.000000,1.000000,60.000000,FALSE,FALSE,TRUE,TRUE,0.000000,0.000000,TRUE,FALSE,TRUE,FALSE,FALSE,3,FALSE,12749,0.5,FALSE,2.4,105.731743,SSG_B748-F_11, ,2021-10-27 09:44:03 ,1,FALSE,0,0,0,FALSE,0.000000,FALSE,FALSE,FALSE,FALSE,0.000000,0,FALSE,FALSE,FALSE,FALSE,FALSE,0.000000,FALSE,0.0,0
External,High View,35,-0.541436,73.422539,129.892609,0.238831,332.673462,FALSE,FALSE,FALSE,TRUE,TRUE,FALSE,0,FALSE,FALSE,0.000000,0.000000,0.000000,0.000000,0.000000,0.000000,1.000000,60.000000,FALSE,FALSE,TRUE,FALSE,0.000000,0.000000,FALSE,FALSE,TRUE,FALSE,FALSE,3,FALSE,12749,0.5,FALSE,2.4,105.731743,SSG_B748-F_11, ,2021-10-27 09:44:03 ,1,FALSE,0,0,0,FALSE,0.000000,FALSE,FALSE,FALSE,FALSE,0.000000,0,FALSE,FALSE,FALSE,FALSE,FALSE,0.000000,FALSE,0.0,0
External,En Route Monitoring External,0,-125.386803,80.319389,97.131271,11.554165,349.717621,FALSE,FALSE,FALSE,TRUE,TRUE,FALSE,0,FALSE,FALSE,0.000000,0.000000,0.000000,0.000000,0.000000,0.000000,1.000000,60.000000,FALSE,FALSE,FALSE,FALSE,0.000000,0.000000,FALSE,FALSE,TRUE,FALSE,FALSE,3,FALSE,12749,0.5,FALSE,2.4,105.731743,SSG_B748-F_11, ,2021-10-27 09:44:03 ,1,FALSE,0,0,0,FALSE,0.000000,FALSE,FALSE,FALSE,FALSE,0.000000,0,FALSE,FALSE,FALSE,FALSE,FALSE,0.000000,FALSE,0.0,0
Cargo,Front,0,-0.029561,2.023896,-30.219080,180.941895,345.500000,FALSE,TRUE,FALSE,TRUE,TRUE,FALSE,0,FALSE,FALSE,0.000000,0.000000,0.000000,0.000000,0.000000,0.000000,1.000000,60.000000,FALSE,FALSE,FALSE,FALSE,0.000000,0.000000,FALSE,FALSE,FALSE,FALSE,FALSE,2,FALSE,12749,0.0,FALSE,2.4,105.731743,SSG_B748-F_11, ,2021-10-27 09:44:03 ,2,FALSE,0,0,0,FALSE,0.000000,FALSE,FALSE,FALSE,FALSE,0.000000,0,FALSE,FALSE,FALSE,FALSE,FALSE,0.000000,FALSE,0.0,0
Cargo,Door,0,-1.345366,1.952514,-25.653801,248.337250,348.249084,FALSE,TRUE,FALSE,TRUE,TRUE,FALSE,0,FALSE,FALSE,0.000000,0.000000,0.000000,0.000000,0.000000,0.000000,1.000000,60.000000,FALSE,FALSE,FALSE,FALSE,0.000000,0.000000,FALSE,FALSE,FALSE,FALSE,FALSE,2,FALSE,12749,0.0,FALSE,2.4,105.731743,SSG_B748-F_11, ,2021-10-27 09:44:03 ,2,FALSE,0,0,0,FALSE,0.000000,FALSE,FALSE,FALSE,FALSE,0.000000,0,FALSE,FALSE,FALSE,FALSE,FALSE,0.000000,FALSE,0.0,0
Cargo,Bottom of Stairs,0,-2.506886,1.939563,-24.417738,103.814011,29.223648,FALSE,TRUE,FALSE,TRUE,TRUE,FALSE,0,FALSE,FALSE,0.000000,0.000000,0.000000,0.000000,0.000000,0.000000,1.000000,60.000000,FALSE,FALSE,FALSE,FALSE,0.000000,0.000000,FALSE,FALSE,FALSE,FALSE,FALSE,2,FALSE,12749,0.0,FALSE,2.4,105.731743,SSG_B748-F_11, ,2021-10-27 09:44:03 ,2,FALSE,0,0,0,FALSE,0.000000,FALSE,FALSE,FALSE,FALSE,0.000000,0,FALSE,FALSE,FALSE,FALSE,FALSE,0.000000,FALSE,0.0,0
Cargo,Middle,0,-0.012452,2.302624,-5.681995,184.081406,348.065002,FALSE,TRUE,FALSE,TRUE,TRUE,FALSE,0,FALSE,FALSE,0.000000,0.000000,0.000000,0.000000,0.000000,0.000000,1.000000,60.000000,FALSE,FALSE,FALSE,FALSE,0.000000,0.000000,FALSE,FALSE,FALSE,FALSE,FALSE,2,FALSE,12749,0.0,FALSE,2.4,105.731743,SSG_B748-F_11, ,2021-10-27 09:44:03 ,2,FALSE,0,0,0,FALSE,0.000000,FALSE,FALSE,FALSE,FALSE,0.000000,0,FALSE,FALSE,FALSE,FALSE,FALSE,0.000000,FALSE,0.0,0
Cargo,Rear,0,2.290812,2.713557,13.373691,195.906982,347.803162,FALSE,TRUE,FALSE,TRUE,TRUE,FALSE,0,FALSE,FALSE,0.000000,0.000000,0.000000,0.000000,0.000000,0.000000,1.000000,60.000000,FALSE,FALSE,FALSE,FALSE,0.000000,0.000000,FALSE,FALSE,FALSE,FALSE,FALSE,2,FALSE,12749,0.0,FALSE,2.4,105.731743,SSG_B748-F_11, ,2021-10-27 09:44:03 ,2,FALSE,0,0,0,FALSE,0.000000,FALSE,FALSE,FALSE,FALSE,0.000000,0,FALSE,FALSE,FALSE,FALSE,FALSE,0.000000,FALSE,0.0,0
Cargo,Rear Forward,0,0.728639,2.593021,25.425934,345.558136,344.399536,FALSE,TRUE,FALSE,TRUE,TRUE,FALSE,0,FALSE,FALSE,0.000000,0.000000,0.000000,0.000000,0.000000,0.000000,1.000000,60.000000,FALSE,FALSE,FALSE,FALSE,0.000000,0.000000,FALSE,FALSE,FALSE,FALSE,FALSE,2,FALSE,12749,0.0,FALSE,2.4,105.731743,SSG_B748-F_11, ,2021-10-27 09:44:03 ,2,FALSE,0,0,0,FALSE,0.000000,FALSE,FALSE,FALSE,FALSE,0.000000,0,FALSE,FALSE,FALSE,FALSE,FALSE,0.000000,FALSE,0.0,0
Upper Deck,Exit Door,0,0.658032,4.208200,-26.849726,93.035011,355.230927,FALSE,TRUE,FALSE,TRUE,TRUE,FALSE,0,FALSE,FALSE,0.000000,0.000000,0.000000,0.000000,0.000000,0.000000,1.000000,60.000000,FALSE,FALSE,FALSE,FALSE,0.000000,0.000000,FALSE,FALSE,FALSE,FALSE,FALSE,2,FALSE,12749,1.0,FALSE,2.4,105.731743,SSG_B748-F_11, ,2021-10-27 09:44:03 ,3,FALSE,0,0,0,FALSE,0.000000,FALSE,FALSE,FALSE,FALSE,0.000000,0,FALSE,FALSE,FALSE,FALSE,FALSE,0.000000,FALSE,0.0,0
Upper Deck,Galley,0,0.019698,4.816934,-26.783300,180.418732,343.449097,FALSE,TRUE,FALSE,TRUE,TRUE,FALSE,0,FALSE,FALSE,0.000000,0.000000,0.000000,0.000000,0.000000,0.000000,1.000000,60.000000,FALSE,FALSE,FALSE,FALSE,0.000000,0.000000,FALSE,FALSE,FALSE,FALSE,FALSE,2,FALSE,12749,1.0,FALSE,2.4,105.731743,SSG_B748-F_11, ,2021-10-27 09:44:03 ,3,FALSE,0,0,0,FALSE,0.000000,FALSE,FALSE,FALSE,FALSE,0.000000,0,FALSE,FALSE,FALSE,FALSE,FALSE,0.000000,FALSE,0.0,0
Upper Deck,Cargo Door,0,-0.031674,4.672740,-24.303452,266.232666,316.089111,FALSE,TRUE,FALSE,TRUE,TRUE,FALSE,0,FALSE,FALSE,0.000000,0.000000,0.000000,0.000000,0.000000,0.000000,1.000000,60.000000,FALSE,FALSE,FALSE,FALSE,0.000000,0.000000,FALSE,FALSE,FALSE,FALSE,FALSE,2,FALSE,12749,1.0,FALSE,2.4,105.731743,SSG_B748-F_11, ,2021-10-27 09:44:03 ,3,FALSE,0,0,0,FALSE,0.000000,FALSE,FALSE,FALSE,FALSE,0.000000,0,FALSE,FALSE,FALSE,FALSE,FALSE,0.000000,FALSE,0.0,0
Upper Deck,Seat Forward,0,-0.118268,4.738646,-25.563663,175.290833,338.998199,FALSE,TRUE,FALSE,TRUE,TRUE,FALSE,0,FALSE,FALSE,0.000000,0.000000,0.000000,0.000000,0.000000,0.000000,1.000000,60.000000,FALSE,FALSE,FALSE,FALSE,0.000000,0.000000,FALSE,FALSE,FALSE,FALSE,FALSE,2,FALSE,12749,1.0,FALSE,2.4,105.731743,SSG_B748-F_11, ,2021-10-27 09:44:03 ,3,FALSE,0,0,0,FALSE,0.000000,FALSE,FALSE,FALSE,FALSE,0.000000,0,FALSE,FALSE,FALSE,FALSE,FALSE,0.000000,FALSE,0.0,0
Upper Deck,Front Right,0,1.328627,4.442041,-24.032946,327.558258,347.507294,FALSE,TRUE,FALSE,TRUE,TRUE,FALSE,0,FALSE,FALSE,0.000000,0.000000,0.000000,0.000000,0.000000,0.000000,1.000000,60.000000,FALSE,FALSE,FALSE,FALSE,0.000000,0.000000,FALSE,FALSE,FALSE,FALSE,FALSE,1,FALSE,12749,1.2,FALSE,2.4,105.731743,SSG_B748-F_11, ,2021-10-27 09:44:03 ,3,FALSE,0,0,0,FALSE,0.000000,FALSE,FALSE,FALSE,FALSE,0.000000,0,FALSE,FALSE,FALSE,FALSE,FALSE,0.000000,FALSE,0.0,0
Upper Deck,Right Window Seat,0,1.322696,4.379315,-23.157423,304.639648,342.270935,FALSE,TRUE,FALSE,TRUE,TRUE,FALSE,0,FALSE,FALSE,0.000000,0.000000,0.000000,0.000000,0.000000,0.000000,1.000000,60.000000,FALSE,FALSE,FALSE,FALSE,0.000000,0.000000,FALSE,FALSE,FALSE,FALSE,FALSE,2,FALSE,12749,1.2,FALSE,2.4,105.731743,SSG_B748-F_11, ,2021-10-27 09:44:03 ,3,FALSE,0,0,0,FALSE,0.000000,FALSE,FALSE,FALSE,FALSE,0.000000,0,FALSE,FALSE,FALSE,FALSE,FALSE,0.000000,FALSE,0.0,0
Upper Deck,Left Corner Seat,0,-1.489390,4.250451,-22.992626,61.953613,347.638184,FALSE,TRUE,FALSE,TRUE,TRUE,FALSE,0,FALSE,FALSE,0.000000,0.000000,0.000000,0.000000,0.000000,0.000000,1.000000,60.000000,FALSE,FALSE,FALSE,FALSE,0.000000,0.000000,FALSE,FALSE,FALSE,FALSE,FALSE,2,FALSE,12749,1.2,FALSE,2.4,105.731743,SSG_B748-F_11, ,2021-10-27 09:44:03 ,3,FALSE,0,0,0,FALSE,0.000000,FALSE,FALSE,FALSE,FALSE,0.000000,0,FALSE,FALSE,FALSE,FALSE,FALSE,0.000000,FALSE,0.0,0
Upper Deck,Sleeping Quarters,0,0.543094,4.201310,-21.497484,45.941902,346.140930,FALSE,TRUE,FALSE,TRUE,TRUE,FALSE,0,FALSE,FALSE,0.000000,0.000000,0.000000,0.000000,0.000000,0.000000,1.000000,60.000000,FALSE,FALSE,FALSE,FALSE,0.000000,0.000000,FALSE,FALSE,FALSE,FALSE,FALSE,2,FALSE,12749,2.0,FALSE,2.4,105.731743,SSG_B748-F_11, ,2021-10-27 09:44:03 ,3,FALSE,0,0,0,FALSE,0.000000,FALSE,FALSE,FALSE,FALSE,0.000000,0,FALSE,FALSE,FALSE,FALSE,FALSE,0.000000,FALSE,0.0,0
Ground,Walking Up,0,-26.206099,-2.203172,-32.810852,138.342560,7.582604,FALSE,TRUE,FALSE,TRUE,TRUE,FALSE,0,FALSE,FALSE,0.000000,0.000000,0.000000,-0.450000,0.000000,0.000000,1.000000,60.000000,FALSE,FALSE,FALSE,FALSE,0.000000,0.000000,FALSE,FALSE,TRUE,FALSE,FALSE,2,FALSE,12749,2.0,FALSE,2.4,105.731743,SSG_B748-F_11, ,2021-10-27 09:44:03 ,4,FALSE,0,0,0,FALSE,0.000000,FALSE,FALSE,FALSE,FALSE,0.000000,0,FALSE,FALSE,FALSE,FALSE,FALSE,0.000000,FALSE,0.0,0
Ground,Entry 1,0,-14.143181,-2.561376,-30.288282,132.063492,15.829878,FALSE,TRUE,FALSE,TRUE,TRUE,FALSE,0,FALSE,FALSE,0.000000,0.000000,0.000000,0.000000,0.000000,0.000000,1.000000,60.000000,FALSE,FALSE,FALSE,FALSE,0.000000,0.000000,FALSE,FALSE,TRUE,FALSE,FALSE,3,FALSE,12749,2.0,FALSE,2.4,105.731743,SSG_B748-F_11, ,2021-10-27 09:44:03 ,4,FALSE,0,0,0,FALSE,0.000000,FALSE,FALSE,FALSE,FALSE,0.000000,0,FALSE,FALSE,FALSE,FALSE,FALSE,0.000000,FALSE,0.0,0
Ground,Left Engines,0,-13.128565,-3.212855,-12.374148,191.400711,6.666242,FALSE,TRUE,FALSE,TRUE,TRUE,FALSE,0,FALSE,FALSE,0.000000,0.000000,0.000000,0.000000,0.000000,0.000000,1.000000,60.000000,FALSE,FALSE,FALSE,FALSE,0.000000,0.000000,FALSE,FALSE,TRUE,FALSE,FALSE,3,FALSE,12749,2.5,FALSE,2.4,105.731743,SSG_B748-F_11, ,2021-10-27 09:44:03 ,4,FALSE,0,0,0,FALSE,0.000000,FALSE,FALSE,FALSE,FALSE,0.000000,0,FALSE,FALSE,FALSE,FALSE,FALSE,0.000000,FALSE,0.0,0
Ground,Left Gear,0,-7.246805,-2.368536,-3.910950,142.110016,352.266235,FALSE,TRUE,FALSE,TRUE,TRUE,FALSE,0,FALSE,FALSE,0.000000,0.000000,0.000000,0.000000,0.000000,0.000000,1.000000,60.000000,FALSE,FALSE,FALSE,FALSE,0.000000,0.000000,FALSE,FALSE,TRUE,FALSE,FALSE,2,FALSE,12749,2.0,FALSE,2.4,105.731743,SSG_B748-F_11, ,2021-10-27 09:44:03 ,4,FALSE,0,0,0,FALSE,0.000000,FALSE,FALSE,FALSE,FALSE,0.000000,0,FALSE,FALSE,FALSE,FALSE,FALSE,0.000000,FALSE,0.0,0
Ground,Side Cargo,0,-9.452278,-2.669915,25.214823,43.947212,8.629878,FALSE,TRUE,FALSE,TRUE,TRUE,FALSE,0,FALSE,FALSE,0.000000,0.000000,0.000000,0.000000,0.000000,0.000000,1.000000,60.000000,FALSE,FALSE,FALSE,FALSE,0.000000,0.000000,FALSE,FALSE,TRUE,FALSE,FALSE,3,FALSE,12749,2.5,FALSE,2.4,105.731743,SSG_B748-F_11, ,2021-10-27 09:44:03 ,4,FALSE,0,0,0,FALSE,0.000000,FALSE,FALSE,FALSE,FALSE,0.000000,0,FALSE,FALSE,FALSE,FALSE,FALSE,0.000000,FALSE,0.0,0
Ground,APU,0,-5.121049,-3.304455,43.641094,36.935585,35.597149,FALSE,TRUE,FALSE,TRUE,TRUE,FALSE,0,FALSE,FALSE,0.000000,0.000000,0.000000,0.000000,0.000000,0.000000,1.000000,60.000000,FALSE,FALSE,FALSE,FALSE,0.000000,0.000000,FALSE,FALSE,TRUE,FALSE,FALSE,3,FALSE,12749,2.0,FALSE,2.4,105.731743,SSG_B748-F_11, ,2021-10-27 09:44:03 ,4,FALSE,0,0,0,FALSE,0.000000,FALSE,FALSE,FALSE,FALSE,0.000000,0,FALSE,FALSE,FALSE,FALSE,FALSE,0.000000,FALSE,0.0,0
Ground,Aft Cargo,0,9.989050,-2.876377,20.483706,289.040222,15.437150,FALSE,TRUE,FALSE,TRUE,TRUE,FALSE,0,FALSE,FALSE,0.000000,0.000000,0.000000,0.000000,0.000000,0.000000,1.000000,60.000000,FALSE,FALSE,FALSE,FALSE,0.000000,0.000000,FALSE,FALSE,TRUE,FALSE,FALSE,3,FALSE,12749,2.0,FALSE,2.4,105.731743,SSG_B748-F_11, ,2021-10-27 09:44:03 ,4,FALSE,0,0,0,FALSE,0.000000,FALSE,FALSE,FALSE,FALSE,0.000000,0,FALSE,FALSE,FALSE,FALSE,FALSE,0.000000,FALSE,0.0,0
Ground,Right Gear,0,8.083254,-2.773779,-4.465277,217.772797,354.491699,FALSE,TRUE,FALSE,TRUE,TRUE,FALSE,0,FALSE,FALSE,0.000000,0.000000,0.000000,0.000000,0.000000,0.000000,1.000000,60.000000,FALSE,FALSE,FALSE,FALSE,0.000000,0.000000,FALSE,FALSE,TRUE,FALSE,FALSE,2,FALSE,12749,2.0,FALSE,2.4,105.731743,SSG_B748-F_11, ,2021-10-27 09:44:03 ,4,FALSE,0,0,0,FALSE,0.000000,FALSE,FALSE,FALSE,FALSE,0.000000,0,FALSE,FALSE,FALSE,FALSE,FALSE,0.000000,FALSE,0.0,0
Ground,Right Engines,0,11.003757,-2.532137,-15.105841,183.028625,4.048060,FALSE,TRUE,FALSE,TRUE,TRUE,FALSE,0,FALSE,FALSE,0.000000,0.000000,0.000000,0.000000,0.000000,0.000000,1.000000,60.000000,FALSE,FALSE,FALSE,FALSE,0.000000,0.000000,FALSE,FALSE,TRUE,FALSE,FALSE,3,FALSE,12749,2.0,FALSE,2.4,105.731743,SSG_B748-F_11, ,2021-10-27 09:44:03 ,4,FALSE,0,0,0,FALSE,0.000000,FALSE,FALSE,FALSE,FALSE,0.000000,0,FALSE,FALSE,FALSE,FALSE,FALSE,0.000000,FALSE,0.0,0
Ground,Forward Cargo,0,9.448042,-2.894683,-27.469868,222.168121,17.400785,FALSE,TRUE,FALSE,TRUE,TRUE,FALSE,0,FALSE,FALSE,0.000000,0.000000,0.000000,0.000000,0.000000,0.000000,1.000000,60.000000,FALSE,FALSE,FALSE,FALSE,0.000000,0.000000,FALSE,FALSE,TRUE,FALSE,FALSE,2,FALSE,12749,2.5,FALSE,2.4,105.731743,SSG_B748-F_11, ,2021-10-27 09:44:03 ,4,FALSE,0,0,0,FALSE,0.000000,FALSE,FALSE,FALSE,FALSE,0.000000,0,FALSE,FALSE,FALSE,FALSE,FALSE,0.000000,FALSE,0.0,0
Ground,Front,0,-0.139213,-3.332204,-38.094196,180.683746,22.375332,FALSE,TRUE,FALSE,TRUE,TRUE,FALSE,0,FALSE,FALSE,0.000000,0.000000,0.000000,0.000000,0.000000,0.000000,1.000000,60.000000,FALSE,FALSE,FALSE,FALSE,0.000000,0.000000,FALSE,FALSE,TRUE,FALSE,FALSE,2,FALSE,12749,2.5,FALSE,2.4,105.731743,SSG_B748-F_11, ,2021-10-27 09:44:03 ,4,FALSE,0,0,0,FALSE,0.000000,FALSE,FALSE,FALSE,FALSE,0.000000,0,FALSE,FALSE,FALSE,FALSE,FALSE,0.000000,FALSE,0.0,0
