Category Name,Camera Name,View ID,X,Y,Z,heading,pitch,TrackIR Enabled,Smooth Transition,HeadShake,RetainMouseLookPosition, Enable Temporary Positioning,Enable Linear Transition,Linear Transition Frames,Enable Auto Advance,Limit TrackIR, Max TrackIR X,Max TrackIR Y,Max TrackIR Z,Min TrackIR X,Min TrackIR Y,Min TrackIR Z,Zoom,FOV,Enable FOV,Smooth Camera Joins, Enable Track Heading, Enable Track Pitch, CGY Offset, CGZ Offset, Enable Level Camera, Enable View Axis, Enable External Camera, Enable Cineflex Camera, Enable Free Camera, Initial Movement Range, Enable Bezier Transition, Run Code,Transition Seconds,Hidden Camera,X-Camera Version,Default FOV,Aircraft,Author,Camera File Version,Category Index,Manual Enable, Latitude,Longitude, Elevation, X-Plane 9 Chase View, roll, Target Following Camera, Scenic Flyer GA Panel, Scenic Flyer Glass Panel, Cinema Verite, CGX Offset, Hide Yoke, Enable Camera Axis, Enable XPRealistic, Enable RealView, Disable 3D Cockpit Zoom, AGL Camera, Height ABove AGL (Meters),Circle View, Transition Delay, Script ID 
Cockpit,Pilot View,1,-0.437553,0.512494,-20.081909,1.779070,348.104584,FALSE,TRUE,FALSE,TRUE,TRUE,FALSE,0,FALSE,FALSE,0.000000,0.000000,0.000000,0.000000,0.000000,0.000000,1.000000,60.000000,FALSE,FALSE,FALSE,FALSE,0.000000,0.000000,FALSE,FALSE,FALSE,FALSE,FALSE,1,FALSE,8289,0.0,FALSE,2.4,104.846817,727-200Adv, ,2022-07-25 00:15:13 ,0,FALSE,0,0,0,FALSE,0.000000,FALSE,FALSE,FALSE,FALSE,0.000000,0,FALSE,FALSE,FALSE,FALSE,FALSE,0.000000,FALSE,0.0,0
Cockpit,Bottom FE Panel,13,0.031962,0.571535,-19.427969,104.839371,-16.545702,FALSE,TRUE,FALSE,TRUE,TRUE,FALSE,0,FALSE,FALSE,0.000000,0.000000,0.000000,0.000000,0.000000,0.000000,1.000000,60.000000,FALSE,FALSE,FALSE,FALSE,0.000000,0.000000,FALSE,FALSE,FALSE,FALSE,FALSE,1,FALSE,8289,0.5,FALSE,2.4,104.846817,727-200Adv, ,2022-07-25 00:15:13 ,0,FALSE,0,0,0,FALSE,0.000000,FALSE,FALSE,FALSE,FALSE,0.000000,0,FALSE,FALSE,FALSE,FALSE,FALSE,0.000000,FALSE,0.0,0
Cockpit,Quick Look 2,3,0.014678,0.248001,-19.876726,-0.857143,-19.639257,FALSE,TRUE,FALSE,TRUE,TRUE,FALSE,0,FALSE,FALSE,0.000000,0.000000,0.000000,0.000000,0.000000,0.000000,1.000000,60.000000,FALSE,FALSE,FALSE,FALSE,0.000000,0.000000,FALSE,FALSE,FALSE,FALSE,FALSE,1,FALSE,8289,0.5,FALSE,2.4,104.846817,727-200Adv, ,2022-07-25 00:15:13 ,0,FALSE,0,0,0,FALSE,0.000000,FALSE,FALSE,FALSE,FALSE,0.000000,0,FALSE,FALSE,FALSE,FALSE,FALSE,0.000000,FALSE,0.0,0
Cockpit,Pedestal,12,0.010860,0.203812,-20.165857,0.209302,276.926514,FALSE,TRUE,FALSE,TRUE,TRUE,FALSE,0,FALSE,FALSE,0.000000,0.000000,0.000000,0.000000,0.000000,0.000000,1.000000,60.000000,FALSE,FALSE,FALSE,FALSE,0.000000,0.000000,FALSE,FALSE,FALSE,FALSE,FALSE,1,FALSE,8289,0.2,FALSE,2.4,104.846817,727-200Adv, ,2022-07-25 00:15:13 ,0,FALSE,0,0,0,FALSE,0.000000,FALSE,FALSE,FALSE,FALSE,0.000000,0,FALSE,FALSE,FALSE,FALSE,FALSE,0.000000,FALSE,0.0,0
Cockpit,FO Seat,7,0.435242,0.520000,-20.133341,-0.000013,-9.284445,FALSE,TRUE,FALSE,TRUE,TRUE,FALSE,0,FALSE,FALSE,0.000000,0.000000,0.000000,0.000000,0.000000,0.000000,1.000000,60.000000,FALSE,FALSE,FALSE,FALSE,0.000000,0.000000,FALSE,FALSE,FALSE,FALSE,FALSE,1,FALSE,8289,0.5,FALSE,2.4,104.846817,727-200Adv, ,2022-07-25 00:15:13 ,0,FALSE,0,0,0,FALSE,0.000000,FALSE,FALSE,FALSE,FALSE,0.000000,0,FALSE,FALSE,FALSE,FALSE,FALSE,0.000000,FALSE,0.0,0
Cockpit,Upper FE Panel,9,0.043284,0.542302,-19.424885,105.214355,21.869108,FALSE,TRUE,FALSE,TRUE,TRUE,FALSE,0,FALSE,FALSE,0.000000,0.000000,0.000000,0.000000,0.000000,0.000000,1.000000,60.000000,FALSE,FALSE,FALSE,FALSE,0.000000,0.000000,FALSE,FALSE,FALSE,FALSE,FALSE,1,FALSE,8289,0.5,FALSE,2.4,104.846817,727-200Adv, ,2022-07-25 00:15:13 ,0,FALSE,0,0,0,FALSE,0.000000,FALSE,FALSE,FALSE,FALSE,0.000000,0,FALSE,FALSE,FALSE,FALSE,FALSE,0.000000,FALSE,0.0,0
Cockpit,Overhead,2,0.013976,0.189120,-20.003811,359.727112,62.156803,FALSE,TRUE,FALSE,TRUE,TRUE,FALSE,0,FALSE,FALSE,0.000000,0.000000,0.000000,0.000000,0.000000,0.000000,1.000000,60.000000,FALSE,FALSE,FALSE,FALSE,0.000000,0.000000,FALSE,FALSE,FALSE,FALSE,FALSE,1,FALSE,8289,0.5,FALSE,2.4,104.846817,727-200Adv, ,2022-07-25 00:15:13 ,0,FALSE,0,0,0,FALSE,0.000000,FALSE,FALSE,FALSE,FALSE,0.000000,0,FALSE,FALSE,FALSE,FALSE,FALSE,0.000000,FALSE,0.0,0
Cockpit,EFB,6,-0.619534,0.365275,-20.115166,316.465118,331.241852,FALSE,TRUE,FALSE,TRUE,TRUE,FALSE,0,FALSE,FALSE,0.000000,0.000000,0.000000,0.000000,0.000000,0.000000,1.000000,60.000000,FALSE,FALSE,FALSE,FALSE,0.000000,0.000000,FALSE,FALSE,FALSE,FALSE,FALSE,1,FALSE,8289,0.0,FALSE,2.4,104.846817,727-200Adv, ,2022-07-25 00:15:13 ,0,FALSE,0,0,0,FALSE,0.000000,FALSE,FALSE,FALSE,FALSE,0.000000,0,FALSE,FALSE,FALSE,FALSE,FALSE,0.000000,FALSE,0.0,0
Cockpit,Captain Glance Down,8,-0.413548,0.265802,-20.526560,10.393169,344.704590,FALSE,TRUE,FALSE,TRUE,TRUE,FALSE,0,FALSE,FALSE,0.000000,0.000000,0.000000,0.000000,0.000000,0.000000,1.000000,60.000000,FALSE,FALSE,FALSE,FALSE,0.000000,0.000000,FALSE,FALSE,FALSE,FALSE,FALSE,1,FALSE,8289,0.0,FALSE,2.4,104.846817,727-200Adv, ,2022-07-25 00:15:13 ,0,FALSE,0,0,0,FALSE,0.000000,FALSE,FALSE,FALSE,FALSE,0.000000,0,FALSE,FALSE,FALSE,FALSE,FALSE,0.000000,FALSE,0.0,0
Cockpit,Center Panel,22,-0.037762,0.304884,-20.471601,1.151163,342.875824,FALSE,TRUE,FALSE,TRUE,TRUE,FALSE,0,FALSE,FALSE,0.000000,0.000000,0.000000,0.000000,0.000000,0.000000,1.000000,60.000000,FALSE,FALSE,FALSE,FALSE,0.000000,0.000000,FALSE,FALSE,FALSE,FALSE,FALSE,1,FALSE,8289,0.0,FALSE,2.4,104.846817,727-200Adv, ,2022-07-25 00:15:13 ,0,FALSE,0,0,0,FALSE,0.000000,FALSE,FALSE,FALSE,FALSE,0.000000,0,FALSE,FALSE,FALSE,FALSE,FALSE,0.000000,FALSE,0.0,0
Cockpit,Throttle,4,-0.394409,0.281313,-19.931021,27.941858,332.810486,FALSE,TRUE,FALSE,TRUE,TRUE,FALSE,0,FALSE,FALSE,0.000000,0.000000,0.000000,0.000000,0.000000,0.000000,1.000000,60.000000,FALSE,FALSE,FALSE,FALSE,0.000000,0.000000,FALSE,FALSE,FALSE,FALSE,FALSE,1,FALSE,8289,0.0,FALSE,2.4,104.846817,727-200Adv, ,2022-07-25 00:15:13 ,0,FALSE,0,0,0,FALSE,0.000000,FALSE,FALSE,FALSE,FALSE,0.000000,0,FALSE,FALSE,FALSE,FALSE,FALSE,0.000000,FALSE,0.0,0
Cockpit,Lights Glance,21,-0.335736,0.523363,-20.130928,42.069767,24.313744,FALSE,TRUE,FALSE,TRUE,TRUE,FALSE,0,FALSE,FALSE,0.000000,0.000000,0.000000,0.000000,0.000000,0.000000,1.000000,60.000000,FALSE,FALSE,FALSE,FALSE,0.000000,0.000000,FALSE,FALSE,FALSE,FALSE,FALSE,1,FALSE,8289,0.0,FALSE,2.4,104.846817,727-200Adv, ,2022-07-25 00:15:13 ,0,FALSE,0,0,0,FALSE,0.000000,FALSE,FALSE,FALSE,FALSE,0.000000,0,FALSE,FALSE,FALSE,FALSE,FALSE,0.000000,FALSE,0.0,0
Cockpit,APU Panel,11,0.273554,0.313286,-18.974701,164.825592,334.379120,FALSE,TRUE,FALSE,TRUE,TRUE,FALSE,0,FALSE,FALSE,0.000000,0.000000,0.000000,0.000000,0.000000,0.000000,1.000000,60.000000,FALSE,FALSE,FALSE,FALSE,0.000000,0.000000,FALSE,FALSE,FALSE,FALSE,FALSE,1,FALSE,8289,0.0,FALSE,2.4,104.846817,727-200Adv, ,2022-07-25 00:15:13 ,0,FALSE,0,0,0,FALSE,0.000000,FALSE,FALSE,FALSE,FALSE,0.000000,0,FALSE,FALSE,FALSE,FALSE,FALSE,0.000000,FALSE,0.0,0
Cockpit,INS / FMS,10,-0.189169,0.245358,-20.594099,0.523254,295.555573,FALSE,TRUE,FALSE,TRUE,TRUE,FALSE,0,FALSE,FALSE,0.000000,0.000000,0.000000,0.000000,0.000000,0.000000,1.000000,60.000000,FALSE,FALSE,FALSE,FALSE,0.000000,0.000000,FALSE,FALSE,FALSE,FALSE,FALSE,1,FALSE,8289,0.0,FALSE,2.4,104.846817,727-200Adv, ,2022-07-25 00:15:13 ,0,FALSE,0,0,0,FALSE,0.000000,FALSE,FALSE,FALSE,FALSE,0.000000,0,FALSE,FALSE,FALSE,FALSE,FALSE,0.000000,FALSE,0.0,0
Cockpit,Landing,14,-0.435538,0.556441,-20.164650,1.360465,345.882355,FALSE,TRUE,FALSE,TRUE,TRUE,FALSE,0,FALSE,FALSE,0.000000,0.000000,0.000000,0.000000,0.000000,0.000000,1.000000,60.000000,FALSE,FALSE,FALSE,FALSE,0.000000,0.000000,FALSE,FALSE,FALSE,FALSE,FALSE,1,FALSE,8289,0.0,FALSE,2.4,104.846817,727-200Adv, ,2022-07-25 00:15:13 ,0,FALSE,0,0,0,FALSE,0.000000,FALSE,FALSE,FALSE,FALSE,0.000000,0,FALSE,FALSE,FALSE,FALSE,FALSE,0.000000,FALSE,0.0,0
Extermal,Camera 1,27,-0.096630,12.428672,46.451515,0.119194,345.020721,FALSE,TRUE,FALSE,TRUE,TRUE,FALSE,0,FALSE,FALSE,0.000000,0.000000,0.000000,0.000000,0.000000,0.000000,1.000000,60.000000,FALSE,FALSE,TRUE,TRUE,0.000000,0.000000,TRUE,FALSE,TRUE,FALSE,FALSE,2,FALSE,8289,0.0,FALSE,2.4,104.846817,727-200Adv, ,2022-07-25 00:15:13 ,1,FALSE,0,0,0,FALSE,0.000000,FALSE,FALSE,FALSE,FALSE,0.000000,0,FALSE,FALSE,FALSE,FALSE,FALSE,0.000000,TRUE,0.0,0
Extermal,Camera 2,24,4.680176,-1.245672,-15.609316,298.343994,348.112335,FALSE,TRUE,FALSE,TRUE,TRUE,FALSE,0,FALSE,FALSE,0.000000,0.000000,0.000000,0.000000,0.000000,0.000000,1.000000,60.000000,FALSE,FALSE,FALSE,FALSE,0.000000,0.000000,FALSE,FALSE,FALSE,FALSE,FALSE,2,FALSE,8289,0.0,FALSE,2.4,104.846817,727-200Adv, ,2022-07-25 00:15:13 ,1,FALSE,0,0,0,FALSE,0.000000,FALSE,FALSE,FALSE,FALSE,0.000000,0,FALSE,FALSE,FALSE,FALSE,FALSE,0.000000,FALSE,0.0,0
Extermal,Right Wing,28,1.511388,0.375494,2.453342,89.173676,334.402069,FALSE,FALSE,FALSE,TRUE,TRUE,FALSE,0,FALSE,FALSE,0.000000,0.000000,0.000000,0.000000,0.000000,0.000000,1.000000,60.000000,FALSE,FALSE,FALSE,FALSE,0.000000,0.000000,FALSE,FALSE,FALSE,FALSE,FALSE,2,FALSE,8289,0.5,FALSE,2.4,104.846817,727-200Adv, ,2022-07-25 00:15:13 ,1,FALSE,0,0,0,FALSE,0.000000,FALSE,FALSE,FALSE,FALSE,0.000000,0,FALSE,FALSE,FALSE,FALSE,FALSE,0.000000,FALSE,0.0,0
Extermal,Left Wing,26,-1.574111,0.277700,0.720456,266.871338,338.323639,FALSE,FALSE,FALSE,TRUE,TRUE,FALSE,0,FALSE,FALSE,0.000000,0.000000,0.000000,0.000000,0.000000,0.000000,1.000000,60.000000,FALSE,FALSE,FALSE,FALSE,0.000000,0.000000,FALSE,FALSE,FALSE,FALSE,FALSE,2,FALSE,8289,0.5,FALSE,2.4,104.846817,727-200Adv, ,2022-07-25 00:15:13 ,1,FALSE,0,0,0,FALSE,0.000000,FALSE,FALSE,FALSE,FALSE,0.000000,0,FALSE,FALSE,FALSE,FALSE,FALSE,0.000000,FALSE,0.0,0
