Category Name,Camera Name,View ID,X,Y,Z,heading,pitch,TrackIR Enabled,Smooth Transition,HeadShake,RetainMouseLookPosition, Enable Temporary Positioning,Enable Linear Transition,Linear Transition Frames,Enable Auto Advance,Limit TrackIR, Max TrackIR X,Max TrackIR Y,Max TrackIR Z,Min TrackIR X,Min TrackIR Y,Min TrackIR Z,Zoom,FOV,Enable FOV,Smooth Camera Joins, Enable Track Heading, Enable Track Pitch, CGY Offset, CGZ Offset, Enable Level Camera, Enable View Axis, Enable External Camera, Enable Cineflex Camera, Enable Free Camera, Initial Movement Range, Enable Bezier Transition, Run Code,Transition Seconds,Hidden Camera,X-Camera Version,Default FOV,Aircraft,Author,Camera File Version,Category Index,Manual Enable, Latitude,Longitude, Elevation, X-Plane 9 Chase View, roll, Target Following Camera, Scenic Flyer GA Panel, Scenic Flyer Glass Panel, Cinema Verite, CGX Offset, Hide Yoke, Enable Camera Axis, Enable XPRealistic, Enable RealView, Disable 3D Cockpit Zoom, AGL Camera, Height ABove AGL (Meters),Circle View, Transition Delay, Script ID 
Cockpit,Left EFB,1,-0.493099,0.477743,-6.731542,297.209259,0.784314,FALSE,TRUE,FALSE,TRUE,TRUE,FALSE,0,FALSE,FALSE,0.000000,0.000000,0.000000,0.000000,0.000000,0.000000,1.000000,60.000000,FALSE,FALSE,FALSE,FALSE,0.000000,0.000000,FALSE,FALSE,FALSE,FALSE,FALSE,1,FALSE,31244,0.8,FALSE,2.4,100.000000,CL650, ,2021-12-30 22:59:45 ,0,TRUE,0,0,0,FALSE,0.000000,FALSE,FALSE,FALSE,FALSE,0.000000,0,FALSE,FALSE,FALSE,FALSE,FALSE,0.000000,FALSE,0.0,0
Cockpit,Overhead,2,-0.042207,0.328505,-6.569843,359.686066,57.697727,FALSE,TRUE,FALSE,TRUE,TRUE,FALSE,0,FALSE,FALSE,0.000000,0.000000,0.000000,0.000000,0.000000,0.000000,1.000000,60.000000,FALSE,FALSE,FALSE,FALSE,0.000000,0.000000,FALSE,FALSE,FALSE,FALSE,FALSE,1,FALSE,31244,0.8,FALSE,2.4,100.000000,CL650, ,2021-12-30 22:59:45 ,0,TRUE,0,0,0,FALSE,0.000000,FALSE,FALSE,FALSE,FALSE,0.000000,0,FALSE,FALSE,FALSE,FALSE,FALSE,0.000000,FALSE,0.0,0
Cockpit,Pilot View,3,-0.482572,0.463026,-6.512522,0.104913,351.693787,FALSE,TRUE,FALSE,TRUE,TRUE,FALSE,0,FALSE,FALSE,0.000000,0.000000,0.000000,0.000000,0.000000,0.000000,1.000000,60.000000,FALSE,FALSE,FALSE,FALSE,0.000000,0.000000,FALSE,FALSE,FALSE,FALSE,FALSE,1,FALSE,31244,0.8,FALSE,2.4,100.000000,CL650, ,2021-12-30 22:59:45 ,0,TRUE,0,0,0,FALSE,0.000000,FALSE,FALSE,FALSE,FALSE,0.000000,0,FALSE,TRUE,FALSE,FALSE,FALSE,0.000000,FALSE,0.0,0
Cockpit,FO Seat,4,0.320502,0.436238,-6.639119,0.104652,350.603973,FALSE,TRUE,FALSE,TRUE,TRUE,FALSE,0,FALSE,FALSE,0.000000,0.000000,0.000000,0.000000,0.000000,0.000000,1.000000,60.000000,FALSE,FALSE,FALSE,FALSE,0.000000,0.000000,FALSE,FALSE,FALSE,FALSE,FALSE,1,FALSE,31244,0.8,FALSE,2.4,100.000000,CL650, ,2021-12-30 22:59:45 ,0,TRUE,0,0,0,FALSE,0.000000,FALSE,FALSE,FALSE,FALSE,0.000000,0,FALSE,TRUE,FALSE,FALSE,FALSE,0.000000,FALSE,0.0,0
Cockpit,Throttles,5,-0.400190,0.455749,-6.680115,23.859367,329.275055,FALSE,TRUE,FALSE,TRUE,TRUE,FALSE,0,FALSE,FALSE,0.000000,0.000000,0.000000,0.000000,0.000000,0.000000,1.000000,60.000000,FALSE,FALSE,FALSE,FALSE,0.000000,0.000000,FALSE,FALSE,FALSE,FALSE,FALSE,1,FALSE,31244,0.8,FALSE,2.4,100.000000,CL650, ,2021-12-30 22:59:45 ,0,TRUE,0,0,0,FALSE,0.000000,FALSE,FALSE,FALSE,FALSE,0.000000,0,FALSE,FALSE,FALSE,FALSE,FALSE,0.000000,FALSE,0.0,0
Cockpit,Fuel Panel,6,0.366711,0.890553,-6.321303,155.269791,355.924591,FALSE,TRUE,FALSE,TRUE,TRUE,FALSE,0,FALSE,FALSE,0.000000,0.000000,0.000000,0.000000,0.000000,0.000000,1.000000,60.000000,FALSE,FALSE,FALSE,FALSE,0.000000,0.000000,FALSE,FALSE,FALSE,FALSE,FALSE,1,FALSE,31244,1.0,FALSE,2.4,100.000000,CL650, ,2021-12-30 22:59:45 ,0,TRUE,0,0,0,FALSE,0.000000,FALSE,FALSE,FALSE,FALSE,0.000000,0,FALSE,FALSE,FALSE,FALSE,FALSE,0.000000,FALSE,0.0,0
Cockpit,Fuel Panel Side,25,0.179575,0.883784,-6.255405,96.390656,5.538641,FALSE,TRUE,FALSE,TRUE,TRUE,FALSE,0,FALSE,FALSE,0.000000,0.000000,0.000000,0.000000,0.000000,0.000000,1.000000,60.000000,FALSE,FALSE,FALSE,FALSE,0.000000,0.000000,FALSE,FALSE,FALSE,FALSE,FALSE,1,FALSE,31244,1.0,FALSE,2.4,100.000000,CL650, ,2021-12-30 22:59:45 ,0,TRUE,0,0,0,FALSE,0.000000,FALSE,FALSE,FALSE,FALSE,0.000000,0,FALSE,FALSE,FALSE,FALSE,FALSE,0.000000,FALSE,0.0,0
Cockpit,Landing,8,-0.488723,0.435073,-6.522768,0.523242,356.829254,FALSE,TRUE,FALSE,TRUE,TRUE,FALSE,0,FALSE,FALSE,0.000000,0.000000,0.000000,0.000000,0.000000,0.000000,1.000000,60.000000,FALSE,FALSE,FALSE,FALSE,0.000000,0.000000,FALSE,FALSE,FALSE,FALSE,FALSE,1,FALSE,31244,0.5,FALSE,2.4,100.000000,CL650, ,2021-12-30 22:59:45 ,0,TRUE,0,0,0,FALSE,0.000000,FALSE,FALSE,FALSE,FALSE,0.000000,0,FALSE,FALSE,FALSE,FALSE,FALSE,0.000000,FALSE,0.0,0
Cockpit,Instrument Glance,9,-0.543696,0.487856,-6.585913,26.267441,335.947723,FALSE,TRUE,FALSE,TRUE,TRUE,FALSE,0,FALSE,FALSE,0.000000,0.000000,0.000000,0.000000,0.000000,0.000000,1.000000,60.000000,FALSE,FALSE,FALSE,FALSE,0.000000,0.000000,FALSE,FALSE,FALSE,FALSE,FALSE,1,FALSE,31244,0.5,FALSE,2.4,100.000000,CL650, ,2021-12-30 22:59:45 ,0,TRUE,0,0,0,FALSE,0.000000,FALSE,FALSE,FALSE,FALSE,0.000000,0,FALSE,FALSE,FALSE,FALSE,FALSE,0.000000,FALSE,0.0,0
Cockpit,Center Panel Zoom,10,-0.190822,0.200749,-6.901436,0.209301,349.542480,FALSE,TRUE,FALSE,TRUE,TRUE,FALSE,0,FALSE,FALSE,0.000000,0.000000,0.000000,0.000000,0.000000,0.000000,1.000000,60.000000,FALSE,FALSE,FALSE,FALSE,0.000000,0.000000,FALSE,FALSE,FALSE,FALSE,FALSE,1,FALSE,31244,0.5,FALSE,2.4,100.000000,CL650, ,2021-12-30 22:59:45 ,0,TRUE,0,0,0,FALSE,0.000000,FALSE,FALSE,FALSE,FALSE,0.000000,0,FALSE,FALSE,FALSE,FALSE,FALSE,0.000000,FALSE,0.0,0
Cockpit,Pedestal,12,-0.068633,0.290035,-6.318105,359.476746,311.372498,FALSE,TRUE,FALSE,TRUE,TRUE,FALSE,0,FALSE,FALSE,0.000000,0.000000,0.000000,0.000000,0.000000,0.000000,1.000000,60.000000,FALSE,FALSE,FALSE,FALSE,0.000000,0.000000,FALSE,FALSE,FALSE,FALSE,FALSE,1,FALSE,31244,0.8,FALSE,2.4,100.000000,CL650, ,2021-12-30 22:59:45 ,0,TRUE,0,0,0,FALSE,0.000000,FALSE,FALSE,FALSE,FALSE,0.000000,0,FALSE,FALSE,FALSE,FALSE,FALSE,0.000000,FALSE,0.0,0
Cockpit,FMS,15,-0.198681,0.217769,-7.181347,0.209295,296.856201,FALSE,TRUE,FALSE,TRUE,TRUE,FALSE,0,FALSE,FALSE,0.000000,0.000000,0.000000,0.000000,0.000000,0.000000,1.000000,60.000000,FALSE,FALSE,FALSE,FALSE,0.000000,0.000000,FALSE,FALSE,FALSE,FALSE,FALSE,1,FALSE,31244,0.5,FALSE,2.4,100.000000,CL650, ,2021-12-30 22:59:45 ,0,TRUE,0,0,0,FALSE,0.000000,FALSE,FALSE,FALSE,FALSE,0.000000,0,FALSE,FALSE,FALSE,FALSE,FALSE,0.000000,FALSE,0.0,0
Cockpit,Circuit Breaker Panel Right,22,0.109047,0.570677,-6.216893,100.360428,1.437879,FALSE,TRUE,FALSE,TRUE,TRUE,FALSE,0,FALSE,FALSE,0.000000,0.000000,0.000000,0.000000,0.000000,0.000000,1.000000,60.000000,FALSE,FALSE,FALSE,FALSE,0.000000,0.000000,FALSE,FALSE,FALSE,FALSE,FALSE,1,FALSE,31244,0.5,FALSE,2.4,100.000000,CL650, ,2021-12-30 22:59:45 ,0,TRUE,0,0,0,FALSE,0.000000,FALSE,FALSE,FALSE,FALSE,0.000000,0,FALSE,FALSE,FALSE,FALSE,FALSE,0.000000,FALSE,0.0,0
Cockpit,Circuit Panel Breaker Left,23,0.103255,0.563179,-6.208315,248.445236,359.351624,FALSE,TRUE,FALSE,TRUE,TRUE,FALSE,0,FALSE,FALSE,0.000000,0.000000,0.000000,0.000000,0.000000,0.000000,1.000000,60.000000,FALSE,FALSE,FALSE,FALSE,0.000000,0.000000,FALSE,FALSE,FALSE,FALSE,FALSE,1,FALSE,31244,0.5,FALSE,2.4,100.000000,CL650, ,2021-12-30 22:59:45 ,0,TRUE,0,0,0,FALSE,0.000000,FALSE,FALSE,FALSE,FALSE,0.000000,0,FALSE,FALSE,FALSE,FALSE,FALSE,0.000000,FALSE,0.0,0
Cockpit,CB Pilot Foot,0,-0.578576,-0.204638,-7.228559,314.202087,338.904938,FALSE,TRUE,FALSE,TRUE,TRUE,FALSE,0,FALSE,FALSE,0.000000,0.000000,0.000000,0.000000,0.000000,0.000000,1.000000,60.000000,FALSE,FALSE,FALSE,FALSE,0.000000,0.000000,FALSE,FALSE,FALSE,FALSE,FALSE,1,FALSE,31244,0.5,FALSE,2.4,100.000000,CL650, ,2021-12-30 22:59:45 ,0,TRUE,0,0,0,FALSE,0.000000,FALSE,FALSE,FALSE,FALSE,0.000000,0,FALSE,FALSE,FALSE,FALSE,FALSE,0.000000,FALSE,0.0,0
Cockpit,CB FO Foot,0,0.578873,-0.231699,-7.215494,62.013535,342.462769,FALSE,TRUE,FALSE,TRUE,TRUE,FALSE,0,FALSE,FALSE,0.000000,0.000000,0.000000,0.000000,0.000000,0.000000,1.000000,60.000000,FALSE,FALSE,FALSE,FALSE,0.000000,0.000000,FALSE,FALSE,FALSE,FALSE,FALSE,1,FALSE,31244,0.5,FALSE,2.4,100.000000,CL650, ,2021-12-30 22:59:45 ,0,TRUE,0,0,0,FALSE,0.000000,FALSE,FALSE,FALSE,FALSE,0.000000,0,FALSE,FALSE,FALSE,FALSE,FALSE,0.000000,FALSE,0.0,0
Cockpit,Pilot 45 Left,46,-0.343176,0.503324,-7.017636,321.802338,357.124146,FALSE,TRUE,FALSE,TRUE,TRUE,FALSE,0,FALSE,FALSE,0.000000,0.000000,0.000000,0.000000,0.000000,0.000000,1.000000,60.000000,FALSE,FALSE,FALSE,FALSE,0.000000,0.000000,FALSE,FALSE,FALSE,FALSE,FALSE,1,FALSE,31244,0.5,FALSE,2.4,100.000000,CL650, ,2021-12-30 22:59:45 ,0,TRUE,0,0,0,FALSE,0.000000,FALSE,FALSE,FALSE,FALSE,0.000000,0,FALSE,FALSE,FALSE,FALSE,FALSE,0.000000,FALSE,0.0,0
Cockpit,FO 45 Right,48,0.232565,0.466354,-7.037855,27.313965,0.784271,FALSE,TRUE,FALSE,TRUE,TRUE,FALSE,0,FALSE,FALSE,0.000000,0.000000,0.000000,0.000000,0.000000,0.000000,1.000000,60.000000,FALSE,FALSE,FALSE,FALSE,0.000000,0.000000,FALSE,FALSE,FALSE,FALSE,FALSE,1,FALSE,31244,0.5,FALSE,2.4,100.000000,CL650, ,2021-12-30 22:59:45 ,0,TRUE,0,0,0,FALSE,0.000000,FALSE,FALSE,FALSE,FALSE,0.000000,0,FALSE,FALSE,FALSE,FALSE,FALSE,0.000000,FALSE,0.0,0
Cockpit,Taxi View,47,-0.298268,0.512174,-6.818592,0.837210,358.169891,FALSE,TRUE,FALSE,TRUE,TRUE,FALSE,0,FALSE,FALSE,0.000000,0.000000,0.000000,0.000000,0.000000,0.000000,1.000000,60.000000,FALSE,FALSE,FALSE,FALSE,0.000000,0.000000,FALSE,FALSE,FALSE,FALSE,FALSE,1,FALSE,31244,0.5,FALSE,2.4,100.000000,CL650, ,2021-12-30 22:59:45 ,0,TRUE,0,0,0,FALSE,0.000000,FALSE,FALSE,FALSE,FALSE,0.000000,0,FALSE,FALSE,FALSE,FALSE,FALSE,0.000000,FALSE,0.0,0
Cockpit,Camera 17,0,-0.387676,0.426343,-6.671723,0.000001,349.673157,FALSE,TRUE,FALSE,TRUE,TRUE,FALSE,0,FALSE,FALSE,0.000000,0.000000,0.000000,0.000000,0.000000,0.000000,1.000000,60.000000,FALSE,FALSE,FALSE,FALSE,0.000000,0.000000,FALSE,FALSE,FALSE,FALSE,FALSE,1,FALSE,31244,0.8,FALSE,2.4,100.000000,CL650, ,2021-12-30 22:59:45 ,0,TRUE,0,0,0,FALSE,0.000000,FALSE,FALSE,FALSE,FALSE,0.000000,0,FALSE,FALSE,FALSE,TRUE,FALSE,0.000000,FALSE,0.0,0
Cockpit,FO Right Panel,0,0.846637,0.287973,-6.675727,31.951740,303.027496,FALSE,TRUE,FALSE,TRUE,TRUE,FALSE,0,FALSE,FALSE,0.000000,0.000000,0.000000,0.000000,0.000000,0.000000,1.000000,60.000000,FALSE,FALSE,FALSE,FALSE,0.000000,0.000000,FALSE,FALSE,FALSE,FALSE,FALSE,1,FALSE,31244,0.8,FALSE,2.4,100.000000,CL650, ,2021-12-30 22:59:45 ,0,TRUE,0,0,0,FALSE,0.000000,FALSE,FALSE,FALSE,FALSE,0.000000,0,FALSE,FALSE,FALSE,FALSE,FALSE,0.000000,FALSE,0.0,0
Cockpit,Captain Left Panel,0,-0.770957,0.298703,-6.706424,331.501740,304.343719,FALSE,TRUE,FALSE,TRUE,TRUE,FALSE,0,FALSE,FALSE,0.000000,0.000000,0.000000,0.000000,0.000000,0.000000,1.000000,60.000000,FALSE,FALSE,FALSE,FALSE,0.000000,0.000000,FALSE,FALSE,FALSE,FALSE,FALSE,1,FALSE,31244,0.8,FALSE,2.4,100.000000,CL650, ,2021-12-30 22:59:45 ,0,TRUE,0,0,0,FALSE,0.000000,FALSE,FALSE,FALSE,FALSE,0.000000,0,FALSE,TRUE,FALSE,FALSE,FALSE,0.000000,FALSE,0.0,0
Cockpit,Brochure View,0,-0.030304,0.450992,-5.864382,359.476990,346.391510,FALSE,TRUE,FALSE,TRUE,TRUE,FALSE,0,FALSE,FALSE,0.000000,0.000000,0.000000,0.000000,0.000000,0.000000,1.000000,60.000000,FALSE,FALSE,FALSE,FALSE,0.000000,0.000000,FALSE,FALSE,FALSE,FALSE,FALSE,1,FALSE,31244,0.8,FALSE,2.4,100.000000,CL650, ,2021-12-30 22:59:45 ,0,TRUE,0,0,0,FALSE,0.000000,FALSE,FALSE,FALSE,FALSE,0.000000,0,FALSE,TRUE,FALSE,FALSE,FALSE,0.000000,FALSE,0.0,0
Cockpit,Glance Overhead,21,-0.413422,0.470163,-6.586590,37.151405,21.759115,FALSE,TRUE,FALSE,TRUE,TRUE,FALSE,0,FALSE,FALSE,0.000000,0.000000,0.000000,0.000000,0.000000,0.000000,1.000000,60.000000,FALSE,FALSE,FALSE,FALSE,0.000000,0.000000,FALSE,FALSE,FALSE,FALSE,FALSE,1,FALSE,31244,0.8,FALSE,2.4,100.000000,CL650, ,2021-12-30 22:59:45 ,0,TRUE,0,0,0,FALSE,0.000000,FALSE,FALSE,FALSE,FALSE,0.000000,0,FALSE,TRUE,FALSE,FALSE,FALSE,0.000000,FALSE,0.0,0
Galley,Main Door,0,0.183745,0.913929,-4.649508,276.488373,333.725494,FALSE,TRUE,FALSE,TRUE,TRUE,FALSE,0,FALSE,FALSE,0.000000,0.000000,0.000000,0.000000,0.000000,0.000000,1.000000,60.000000,FALSE,FALSE,FALSE,FALSE,0.000000,0.000000,FALSE,FALSE,FALSE,FALSE,FALSE,1,FALSE,31244,1.0,FALSE,2.4,100.000000,CL650, ,2021-12-30 22:59:45 ,1,TRUE,0,0,0,FALSE,0.000000,FALSE,FALSE,FALSE,FALSE,0.000000,0,FALSE,FALSE,FALSE,FALSE,FALSE,0.000000,FALSE,0.0,0
Galley,Announcement / Light Panel,0,-0.104705,0.877694,-4.452083,92.062195,352.351929,FALSE,TRUE,FALSE,TRUE,TRUE,FALSE,0,FALSE,FALSE,0.000000,0.000000,0.000000,0.000000,0.000000,0.000000,1.000000,60.000000,FALSE,FALSE,FALSE,FALSE,0.000000,0.000000,FALSE,FALSE,FALSE,FALSE,FALSE,1,FALSE,31244,1.0,FALSE,2.4,100.000000,CL650, ,2021-12-30 22:59:45 ,1,TRUE,0,0,0,FALSE,0.000000,FALSE,FALSE,FALSE,FALSE,0.000000,0,FALSE,FALSE,FALSE,TRUE,FALSE,0.000000,FALSE,0.0,0
Galley,Cabin View #1,0,0.088530,0.649724,-4.278317,188.267441,346.928101,FALSE,TRUE,FALSE,TRUE,TRUE,FALSE,0,FALSE,FALSE,0.000000,0.000000,0.000000,0.000000,0.000000,0.000000,1.000000,60.000000,FALSE,FALSE,FALSE,FALSE,0.000000,0.000000,FALSE,FALSE,FALSE,FALSE,FALSE,1,FALSE,31244,1.0,FALSE,2.4,100.000000,CL650, ,2021-12-30 22:59:45 ,1,TRUE,0,0,0,FALSE,0.000000,FALSE,FALSE,FALSE,FALSE,0.000000,0,FALSE,FALSE,FALSE,FALSE,FALSE,0.000000,FALSE,0.0,0
Galley,Main Door Curtain,0,0.036088,0.939065,-4.231005,313.578033,352.173523,FALSE,TRUE,FALSE,TRUE,TRUE,FALSE,0,FALSE,FALSE,0.000000,0.000000,0.000000,0.000000,0.000000,0.000000,1.000000,60.000000,FALSE,FALSE,FALSE,FALSE,0.000000,0.000000,FALSE,FALSE,FALSE,FALSE,FALSE,1,FALSE,31244,1.0,FALSE,2.4,100.000000,CL650, ,2021-12-30 22:59:45 ,1,TRUE,0,0,0,FALSE,0.000000,FALSE,FALSE,FALSE,FALSE,0.000000,0,FALSE,FALSE,FALSE,FALSE,FALSE,0.000000,FALSE,0.0,0
Cabin,First Seat,0,-0.673440,0.191513,-3.666135,165.558151,358.431335,FALSE,TRUE,FALSE,TRUE,TRUE,FALSE,0,FALSE,FALSE,0.000000,0.000000,0.000000,0.000000,0.000000,0.000000,1.000000,60.000000,FALSE,FALSE,FALSE,FALSE,0.000000,0.000000,FALSE,FALSE,FALSE,FALSE,FALSE,1,FALSE,31244,1.0,FALSE,2.4,100.000000,CL650, ,2021-12-30 22:59:45 ,2,TRUE,0,0,0,FALSE,0.000000,FALSE,FALSE,FALSE,FALSE,0.000000,0,FALSE,FALSE,FALSE,FALSE,FALSE,0.000000,FALSE,0.0,0
Cabin,Front #1 (screen),44,-0.684522,0.232349,-2.425645,174.426666,358.771790,FALSE,TRUE,FALSE,TRUE,FALSE,FALSE,0,FALSE,FALSE,0.000000,0.000000,0.000000,0.000000,0.000000,0.000000,1.000000,60.000000,FALSE,FALSE,FALSE,FALSE,0.000000,0.000000,FALSE,FALSE,FALSE,FALSE,FALSE,1,FALSE,31244,1.0,FALSE,2.4,100.000000,CL650, ,2021-12-30 22:59:45 ,2,TRUE,0,0,0,FALSE,0.000000,FALSE,FALSE,FALSE,FALSE,0.000000,0,FALSE,FALSE,FALSE,FALSE,FALSE,0.000000,FALSE,0.0,0
Cabin,Left Window,43,-1.055989,0.215095,0.076371,276.592987,353.725464,FALSE,TRUE,FALSE,TRUE,TRUE,FALSE,0,FALSE,FALSE,0.000000,0.000000,0.000000,0.000000,0.000000,0.000000,1.000000,60.000000,FALSE,FALSE,FALSE,FALSE,0.000000,0.000000,FALSE,FALSE,FALSE,FALSE,FALSE,1,FALSE,31244,1.0,FALSE,2.4,100.000000,CL650, ,2021-12-30 22:59:45 ,2,TRUE,0,0,0,FALSE,0.000000,FALSE,FALSE,FALSE,FALSE,0.000000,0,FALSE,FALSE,FALSE,FALSE,FALSE,0.000000,FALSE,0.0,0
Cabin,Table Seat,0,-0.684429,0.299879,0.155315,348.687317,2.533033,FALSE,TRUE,FALSE,TRUE,FALSE,FALSE,0,FALSE,FALSE,0.000000,0.000000,0.000000,0.000000,0.000000,0.000000,1.000000,60.000000,FALSE,FALSE,FALSE,FALSE,0.000000,0.000000,FALSE,FALSE,FALSE,FALSE,FALSE,1,FALSE,31244,1.0,FALSE,2.4,100.000000,CL650, ,2021-12-30 22:59:45 ,2,TRUE,0,0,0,FALSE,0.000000,FALSE,FALSE,FALSE,FALSE,0.000000,0,FALSE,FALSE,FALSE,FALSE,FALSE,0.000000,FALSE,0.0,0
Cabin,Couch,0,0.724041,0.233023,-0.858654,263.406952,356.470551,FALSE,TRUE,FALSE,TRUE,TRUE,FALSE,0,FALSE,FALSE,0.000000,0.000000,0.000000,0.000000,0.000000,0.000000,1.000000,60.000000,FALSE,FALSE,FALSE,FALSE,0.000000,0.000000,FALSE,FALSE,FALSE,FALSE,FALSE,1,FALSE,31244,1.0,FALSE,2.4,100.000000,CL650, ,2021-12-30 22:59:45 ,2,TRUE,0,0,0,FALSE,0.000000,FALSE,FALSE,FALSE,FALSE,0.000000,0,FALSE,FALSE,FALSE,FALSE,FALSE,0.000000,FALSE,0.0,0
Cabin,Couch 2,0,0.724041,0.233023,-0.858654,263.406952,356.470551,FALSE,TRUE,FALSE,TRUE,TRUE,FALSE,0,FALSE,FALSE,0.000000,0.000000,0.000000,0.000000,0.000000,0.000000,1.000000,60.000000,FALSE,FALSE,FALSE,FALSE,0.000000,0.000000,FALSE,FALSE,FALSE,FALSE,FALSE,1,FALSE,31244,1.0,FALSE,2.4,100.000000,CL650, ,2021-12-30 22:59:45 ,2,TRUE,0,0,0,FALSE,0.000000,FALSE,FALSE,FALSE,FALSE,0.000000,0,FALSE,FALSE,FALSE,FALSE,FALSE,0.000000,FALSE,0.0,0
Cabin,Nap Time,0,0.696648,-0.012578,-0.069487,0.523254,12.026085,FALSE,TRUE,FALSE,TRUE,TRUE,FALSE,0,FALSE,FALSE,0.000000,0.000000,0.000000,0.000000,0.000000,0.000000,1.000000,60.000000,FALSE,FALSE,FALSE,FALSE,0.000000,0.000000,FALSE,FALSE,FALSE,FALSE,FALSE,1,FALSE,31244,1.0,FALSE,2.4,100.000000,CL650, ,2021-12-30 22:59:45 ,2,TRUE,0,0,0,FALSE,0.000000,FALSE,FALSE,FALSE,FALSE,0.000000,0,FALSE,FALSE,FALSE,FALSE,FALSE,0.000000,FALSE,0.0,0
Cabin,Right Window,45,1.105987,0.184280,-3.011917,111.244164,353.333344,FALSE,TRUE,FALSE,TRUE,TRUE,FALSE,0,FALSE,FALSE,0.000000,0.000000,0.000000,0.000000,0.000000,0.000000,1.000000,60.000000,FALSE,FALSE,FALSE,FALSE,0.000000,0.000000,FALSE,FALSE,FALSE,FALSE,FALSE,1,FALSE,31244,1.0,FALSE,2.4,100.000000,CL650, ,2021-12-30 22:59:45 ,2,TRUE,0,0,0,FALSE,0.000000,FALSE,FALSE,FALSE,FALSE,0.000000,0,FALSE,FALSE,FALSE,FALSE,FALSE,0.000000,FALSE,0.0,0
Inspection,Start,0,-11.591760,-0.755308,-10.053600,128.521408,6.542239,FALSE,TRUE,FALSE,TRUE,TRUE,FALSE,0,FALSE,FALSE,0.000000,0.000000,0.000000,0.000000,0.000000,0.000000,1.000000,60.000000,FALSE,FALSE,FALSE,FALSE,0.000000,0.000000,FALSE,FALSE,FALSE,FALSE,FALSE,2,FALSE,31244,1.0,FALSE,2.4,100.000000,CL650, ,2021-12-30 22:59:45 ,3,TRUE,0,0,0,FALSE,0.000000,FALSE,FALSE,FALSE,FALSE,0.000000,0,FALSE,FALSE,FALSE,FALSE,FALSE,0.000000,FALSE,0.0,0
Inspection,Left FWD SE (4x),0,-3.853269,-0.766007,-8.820626,127.779091,4.967309,FALSE,TRUE,FALSE,TRUE,TRUE,FALSE,0,FALSE,FALSE,0.000000,0.000000,0.000000,0.000000,0.000000,0.000000,1.000000,60.000000,FALSE,FALSE,FALSE,FALSE,0.000000,0.000000,FALSE,FALSE,FALSE,FALSE,FALSE,2,FALSE,31244,1.3,FALSE,2.4,100.000000,CL650, ,2021-12-30 22:59:45 ,3,TRUE,0,0,0,FALSE,0.000000,FALSE,FALSE,FALSE,FALSE,0.000000,0,FALSE,FALSE,FALSE,FALSE,FALSE,0.000000,FALSE,0.0,0
Inspection,Nosewheel Gear Pin,0,0.169051,-1.342373,-8.436751,205.430237,11.111098,FALSE,TRUE,FALSE,TRUE,TRUE,FALSE,0,FALSE,FALSE,0.000000,0.000000,0.000000,0.000000,0.000000,0.000000,1.000000,60.000000,FALSE,FALSE,FALSE,FALSE,0.000000,0.000000,FALSE,FALSE,FALSE,FALSE,FALSE,2,FALSE,31244,1.2,FALSE,2.4,100.000000,CL650, ,2021-12-30 22:59:45 ,3,TRUE,0,0,0,FALSE,0.000000,FALSE,FALSE,FALSE,FALSE,0.000000,0,FALSE,FALSE,FALSE,FALSE,FALSE,0.000000,FALSE,0.0,0
Inspection,Nosewheel Bay (Interior),0,-0.041790,-1.191798,-8.324615,167.651154,20.392153,FALSE,FALSE,FALSE,TRUE,TRUE,FALSE,0,FALSE,FALSE,0.000000,0.000000,0.000000,0.000000,0.000000,0.000000,1.000000,60.000000,FALSE,FALSE,FALSE,FALSE,0.000000,0.000000,FALSE,FALSE,FALSE,FALSE,FALSE,2,FALSE,31244,1.0,FALSE,2.4,100.000000,CL650, ,2021-12-30 22:59:45 ,3,TRUE,0,0,0,FALSE,0.000000,FALSE,FALSE,FALSE,FALSE,0.000000,0,FALSE,FALSE,FALSE,FALSE,FALSE,0.000000,FALSE,0.0,0
Inspection,Right FWD SE (3x),0,4.008276,-0.229069,-8.354731,249.906998,0.784271,FALSE,TRUE,FALSE,TRUE,TRUE,FALSE,0,FALSE,FALSE,0.000000,0.000000,0.000000,0.000000,0.000000,0.000000,1.000000,60.000000,FALSE,FALSE,FALSE,FALSE,0.000000,0.000000,FALSE,FALSE,FALSE,FALSE,FALSE,2,FALSE,31244,1.2,FALSE,2.4,100.000000,CL650, ,2021-12-30 22:59:45 ,3,TRUE,0,0,0,FALSE,0.000000,FALSE,FALSE,FALSE,FALSE,0.000000,0,FALSE,FALSE,FALSE,FALSE,FALSE,0.000000,FALSE,0.0,0
Inspection,Nosewheel Door Release + AC Pw,0,0.725805,-1.256768,-8.215234,249.174438,11.764664,FALSE,TRUE,FALSE,TRUE,TRUE,FALSE,0,FALSE,FALSE,0.000000,0.000000,0.000000,0.000000,0.000000,0.000000,1.000000,60.000000,FALSE,FALSE,FALSE,FALSE,0.000000,0.000000,FALSE,FALSE,FALSE,FALSE,FALSE,2,FALSE,31244,1.2,FALSE,2.4,100.000000,CL650, ,2021-12-30 22:59:45 ,3,TRUE,0,0,0,FALSE,0.000000,FALSE,FALSE,FALSE,FALSE,0.000000,0,FALSE,FALSE,FALSE,FALSE,FALSE,0.000000,FALSE,0.0,0
Inspection,Rear Left Gear Pin,0,2.157114,-1.827529,-2.103684,200.302322,5.359459,FALSE,TRUE,FALSE,TRUE,TRUE,FALSE,0,FALSE,FALSE,0.000000,0.000000,0.000000,0.000000,0.000000,0.000000,1.000000,60.000000,FALSE,FALSE,FALSE,FALSE,0.000000,0.000000,FALSE,FALSE,FALSE,FALSE,FALSE,2,FALSE,31244,1.2,FALSE,2.4,100.000000,CL650, ,2021-12-30 22:59:45 ,3,TRUE,0,0,0,FALSE,0.000000,FALSE,FALSE,FALSE,FALSE,0.000000,0,FALSE,FALSE,FALSE,FALSE,FALSE,0.000000,FALSE,0.0,0
Inspection,Right Right Gear Pin,0,-2.291531,-1.659968,-2.150028,158.023254,1.830047,FALSE,TRUE,FALSE,TRUE,TRUE,FALSE,0,FALSE,FALSE,0.000000,0.000000,0.000000,0.000000,0.000000,0.000000,1.000000,60.000000,FALSE,FALSE,FALSE,FALSE,0.000000,0.000000,FALSE,FALSE,FALSE,FALSE,FALSE,2,FALSE,31244,1.2,FALSE,2.4,100.000000,CL650, ,2021-12-30 22:59:45 ,3,TRUE,0,0,0,FALSE,0.000000,FALSE,FALSE,FALSE,FALSE,0.000000,0,FALSE,FALSE,FALSE,FALSE,FALSE,0.000000,FALSE,0.0,0
Inspection,Front Chocks,0,-1.720834,-0.957460,-8.388215,117.941872,347.973846,FALSE,TRUE,FALSE,TRUE,TRUE,FALSE,0,FALSE,FALSE,0.000000,0.000000,0.000000,0.000000,0.000000,0.000000,1.000000,60.000000,FALSE,FALSE,FALSE,FALSE,0.000000,0.000000,FALSE,FALSE,FALSE,FALSE,FALSE,2,FALSE,31244,1.2,FALSE,2.4,100.000000,CL650, ,2021-12-30 22:59:45 ,3,TRUE,0,0,0,FALSE,0.000000,FALSE,FALSE,FALSE,FALSE,0.000000,0,FALSE,FALSE,FALSE,FALSE,FALSE,0.000000,FALSE,0.0,0
Inspection,Rear Chocks,0,2.647555,-1.479231,3.249284,328.290771,358.169891,FALSE,TRUE,FALSE,TRUE,TRUE,FALSE,0,FALSE,FALSE,0.000000,0.000000,0.000000,0.000000,0.000000,0.000000,1.000000,60.000000,FALSE,FALSE,FALSE,FALSE,0.000000,0.000000,FALSE,FALSE,FALSE,FALSE,FALSE,2,FALSE,31244,1.2,FALSE,2.4,100.000000,CL650, ,2021-12-30 22:59:45 ,3,TRUE,0,0,0,FALSE,0.000000,FALSE,FALSE,FALSE,FALSE,0.000000,0,FALSE,FALSE,FALSE,FALSE,FALSE,0.000000,FALSE,0.0,0
Inspection,Main Door,0,-2.785527,-0.558941,-6.065100,123.697693,15.424830,FALSE,TRUE,FALSE,TRUE,TRUE,FALSE,0,FALSE,FALSE,0.000000,0.000000,0.000000,0.000000,0.000000,0.000000,1.000000,60.000000,FALSE,FALSE,FALSE,FALSE,0.000000,0.000000,FALSE,FALSE,FALSE,FALSE,FALSE,2,FALSE,31244,1.2,FALSE,2.4,100.000000,CL650, ,2021-12-30 22:59:45 ,3,TRUE,0,0,0,FALSE,0.000000,FALSE,FALSE,FALSE,FALSE,0.000000,0,FALSE,FALSE,FALSE,FALSE,FALSE,0.000000,FALSE,0.0,0
Inspection,Right Wing Check,0,10.782743,-0.135376,1.444566,273.453552,353.333313,FALSE,TRUE,FALSE,TRUE,TRUE,FALSE,0,FALSE,FALSE,0.000000,0.000000,0.000000,0.000000,0.000000,0.000000,1.000000,60.000000,FALSE,FALSE,FALSE,FALSE,0.000000,0.000000,FALSE,FALSE,FALSE,FALSE,FALSE,2,FALSE,31244,1.2,FALSE,2.4,100.000000,CL650, ,2021-12-30 22:59:45 ,3,TRUE,0,0,0,FALSE,0.000000,FALSE,FALSE,FALSE,FALSE,0.000000,0,FALSE,FALSE,FALSE,FALSE,FALSE,0.000000,FALSE,0.0,0
Inspection,Left Wing Check,0,10.485311,-0.170204,1.426617,273.453552,353.333313,FALSE,TRUE,FALSE,TRUE,TRUE,FALSE,0,FALSE,FALSE,0.000000,0.000000,0.000000,0.000000,0.000000,0.000000,1.000000,60.000000,FALSE,FALSE,FALSE,FALSE,0.000000,0.000000,FALSE,FALSE,FALSE,FALSE,FALSE,2,FALSE,31244,1.2,FALSE,2.4,100.000000,CL650, ,2021-12-30 22:59:45 ,3,TRUE,0,0,0,FALSE,0.000000,FALSE,FALSE,FALSE,FALSE,0.000000,0,FALSE,FALSE,FALSE,FALSE,FALSE,0.000000,FALSE,0.0,0
Inspection,Camera 14,0,10.485311,-0.170204,1.426617,273.453552,353.333313,FALSE,TRUE,FALSE,TRUE,TRUE,FALSE,0,FALSE,FALSE,0.000000,0.000000,0.000000,0.000000,0.000000,0.000000,1.000000,60.000000,FALSE,FALSE,FALSE,FALSE,0.000000,0.000000,FALSE,FALSE,FALSE,FALSE,FALSE,2,FALSE,31244,1.2,FALSE,2.4,100.000000,CL650, ,2021-12-30 22:59:45 ,3,TRUE,0,0,0,FALSE,0.000000,FALSE,FALSE,FALSE,FALSE,0.000000,0,FALSE,FALSE,FALSE,FALSE,FALSE,0.000000,FALSE,0.0,0
Ground Services,GPU,0,4.085350,-1.146601,-7.506047,314.267426,4.575189,FALSE,TRUE,FALSE,TRUE,TRUE,FALSE,0,FALSE,FALSE,0.000000,0.000000,0.000000,0.000000,0.000000,0.000000,1.000000,60.000000,FALSE,FALSE,FALSE,FALSE,0.000000,0.000000,FALSE,FALSE,FALSE,FALSE,FALSE,2,FALSE,31244,1.0,FALSE,2.4,100.000000,CL650, ,2021-12-30 22:59:45 ,4,TRUE,0,0,0,FALSE,0.000000,FALSE,FALSE,FALSE,FALSE,0.000000,0,FALSE,FALSE,FALSE,FALSE,FALSE,0.000000,FALSE,0.0,0
Ground Services,Fuel Truck,0,7.697288,-0.837839,-8.878677,196.011658,359.477112,FALSE,TRUE,FALSE,TRUE,TRUE,FALSE,0,FALSE,FALSE,0.000000,0.000000,0.000000,0.000000,0.000000,0.000000,1.000000,60.000000,FALSE,FALSE,FALSE,FALSE,0.000000,0.000000,FALSE,FALSE,FALSE,FALSE,FALSE,2,FALSE,31244,1.0,FALSE,2.4,100.000000,CL650, ,2021-12-30 22:59:45 ,4,TRUE,0,0,0,FALSE,0.000000,FALSE,FALSE,FALSE,FALSE,0.000000,0,FALSE,FALSE,FALSE,FALSE,FALSE,0.000000,FALSE,0.0,0
Ground Services,Fuel Connection,0,2.003071,-1.108628,-2.831770,253.988403,1.307184,FALSE,TRUE,FALSE,TRUE,TRUE,FALSE,0,FALSE,FALSE,0.000000,0.000000,0.000000,0.000000,0.000000,0.000000,1.000000,60.000000,FALSE,FALSE,FALSE,FALSE,0.000000,0.000000,FALSE,FALSE,FALSE,FALSE,FALSE,2,FALSE,31244,1.0,FALSE,2.4,100.000000,CL650, ,2021-12-30 22:59:45 ,4,TRUE,0,0,0,FALSE,0.000000,FALSE,FALSE,FALSE,FALSE,0.000000,0,FALSE,FALSE,FALSE,FALSE,FALSE,0.000000,FALSE,0.0,0
Panels,Fuel Control Panel,0,1.719571,-0.836648,-2.219795,268.639587,3.267944,FALSE,TRUE,FALSE,TRUE,TRUE,FALSE,0,FALSE,FALSE,0.000000,0.000000,0.000000,0.000000,0.000000,0.000000,1.000000,60.000000,FALSE,FALSE,FALSE,FALSE,0.000000,0.000000,FALSE,FALSE,FALSE,FALSE,FALSE,2,FALSE,31244,1.0,FALSE,2.4,100.000000,CL650, ,2021-12-30 22:59:45 ,5,TRUE,0,0,0,FALSE,0.000000,FALSE,FALSE,FALSE,FALSE,0.000000,0,FALSE,FALSE,FALSE,FALSE,FALSE,0.000000,FALSE,0.0,0
Panels,Water Supply Panel,0,1.561943,-1.059148,2.545877,319.813995,357.124176,FALSE,TRUE,FALSE,TRUE,TRUE,FALSE,0,FALSE,FALSE,0.000000,0.000000,0.000000,0.000000,0.000000,0.000000,1.000000,60.000000,FALSE,FALSE,FALSE,FALSE,0.000000,0.000000,FALSE,FALSE,FALSE,FALSE,FALSE,2,FALSE,31244,1.0,FALSE,2.4,100.000000,CL650, ,2021-12-30 22:59:45 ,5,TRUE,0,0,0,FALSE,0.000000,FALSE,FALSE,FALSE,FALSE,0.000000,0,FALSE,FALSE,FALSE,FALSE,FALSE,0.000000,FALSE,0.0,0
Panels,Cabin Press / APU,0,-1.591642,-0.797319,3.355574,83.302368,2.614380,FALSE,TRUE,FALSE,TRUE,TRUE,FALSE,0,FALSE,FALSE,0.000000,0.000000,0.000000,0.000000,0.000000,0.000000,1.000000,60.000000,FALSE,FALSE,FALSE,FALSE,0.000000,0.000000,FALSE,FALSE,FALSE,FALSE,FALSE,2,FALSE,31244,1.0,FALSE,2.4,100.000000,CL650, ,2021-12-30 22:59:45 ,5,TRUE,0,0,0,FALSE,0.000000,FALSE,FALSE,FALSE,FALSE,0.000000,0,FALSE,FALSE,FALSE,FALSE,FALSE,0.000000,FALSE,0.0,0
Panels,Nosegear Door Switch / AC Powe,0,0.702050,-1.319878,-8.246686,247.709351,26.274506,FALSE,TRUE,FALSE,TRUE,TRUE,FALSE,0,FALSE,FALSE,0.000000,0.000000,0.000000,0.000000,0.000000,0.000000,1.000000,60.000000,FALSE,FALSE,FALSE,FALSE,0.000000,0.000000,FALSE,FALSE,FALSE,FALSE,FALSE,1,FALSE,31244,1.0,FALSE,2.4,100.000000,CL650, ,2021-12-30 22:59:45 ,5,TRUE,0,0,0,FALSE,0.000000,FALSE,FALSE,FALSE,FALSE,0.000000,0,FALSE,FALSE,FALSE,FALSE,FALSE,0.000000,FALSE,0.0,0
Panels,DC Power,0,1.658538,-0.879549,4.004920,280.650055,2.886871,FALSE,TRUE,FALSE,TRUE,TRUE,FALSE,0,FALSE,FALSE,0.000000,0.000000,0.000000,0.000000,0.000000,0.000000,1.000000,60.000000,FALSE,FALSE,FALSE,FALSE,0.000000,0.000000,FALSE,FALSE,TRUE,FALSE,FALSE,2,FALSE,31244,0.5,FALSE,2.4,100.000000,CL650, ,2021-12-30 22:59:45 ,5,TRUE,0,0,0,FALSE,0.000000,FALSE,FALSE,FALSE,FALSE,0.000000,0,FALSE,FALSE,FALSE,FALSE,FALSE,0.000000,FALSE,0.0,0
Panels,Oxygen Panel,0,1.156247,-0.378123,-8.125957,256.395355,355.555511,FALSE,TRUE,FALSE,TRUE,TRUE,FALSE,0,FALSE,FALSE,0.000000,0.000000,0.000000,0.000000,0.000000,0.000000,1.000000,60.000000,FALSE,FALSE,FALSE,FALSE,0.000000,0.000000,FALSE,FALSE,FALSE,FALSE,FALSE,1,FALSE,31244,1.0,FALSE,2.4,100.000000,CL650, ,2021-12-30 22:59:45 ,5,TRUE,0,0,0,FALSE,0.000000,FALSE,FALSE,FALSE,FALSE,0.000000,0,FALSE,FALSE,FALSE,FALSE,FALSE,0.000000,FALSE,0.0,0
External,Chase,27,-0.333788,13.528922,33.253342,0.575104,337.862366,FALSE,TRUE,FALSE,TRUE,TRUE,FALSE,0,FALSE,FALSE,0.000000,0.000000,0.000000,0.000000,0.000000,0.000000,1.000000,60.000000,FALSE,FALSE,TRUE,TRUE,0.000000,0.000000,TRUE,FALSE,TRUE,FALSE,FALSE,3,FALSE,31244,0.5,FALSE,2.4,100.000000,CL650, ,2021-12-30 22:59:45 ,6,TRUE,0,0,0,FALSE,0.000000,FALSE,FALSE,FALSE,FALSE,0.000000,0,FALSE,FALSE,FALSE,FALSE,FALSE,0.000000,TRUE,0.0,0
External,Tow,24,2.910191,-0.721931,-5.606465,296.452362,344.847656,FALSE,TRUE,FALSE,TRUE,TRUE,FALSE,0,FALSE,FALSE,0.000000,0.000000,0.000000,0.000000,0.000000,0.000000,1.000000,60.000000,FALSE,FALSE,FALSE,FALSE,0.000000,0.000000,FALSE,FALSE,TRUE,FALSE,FALSE,2,FALSE,31244,0.5,FALSE,2.4,100.000000,CL650, ,2021-12-30 22:59:45 ,6,TRUE,0,0,0,FALSE,0.000000,FALSE,FALSE,FALSE,FALSE,0.000000,0,FALSE,FALSE,FALSE,FALSE,FALSE,0.000000,FALSE,0.0,0
External,Left Wing,26,-1.291374,0.194881,-0.949993,250.719803,347.723480,FALSE,FALSE,FALSE,TRUE,TRUE,FALSE,0,FALSE,FALSE,0.000000,0.000000,0.000000,0.000000,0.000000,0.000000,1.000000,60.000000,FALSE,FALSE,FALSE,FALSE,0.000000,0.000000,FALSE,FALSE,FALSE,FALSE,FALSE,1,FALSE,31244,0.5,FALSE,2.4,100.000000,CL650, ,2021-12-30 22:59:45 ,6,TRUE,0,0,0,FALSE,0.000000,FALSE,FALSE,FALSE,FALSE,0.000000,0,FALSE,FALSE,FALSE,FALSE,FALSE,0.000000,FALSE,0.0,0
External,Right Wing,28,1.311531,0.149100,-0.904165,109.859337,349.292084,FALSE,FALSE,FALSE,TRUE,TRUE,FALSE,0,FALSE,FALSE,0.000000,0.000000,0.000000,0.000000,0.000000,0.000000,1.000000,60.000000,FALSE,FALSE,FALSE,FALSE,0.000000,0.000000,FALSE,FALSE,FALSE,FALSE,FALSE,1,FALSE,31244,0.5,FALSE,2.4,100.000000,CL650, ,2021-12-30 22:59:45 ,6,TRUE,0,0,0,FALSE,0.000000,FALSE,FALSE,FALSE,FALSE,0.000000,0,FALSE,FALSE,FALSE,FALSE,FALSE,0.000000,FALSE,0.0,0
External,Taxi,13,0.132631,18.184814,21.616726,359.452393,331.645020,FALSE,TRUE,FALSE,TRUE,TRUE,FALSE,0,FALSE,FALSE,0.000000,0.000000,0.000000,0.000000,0.000000,0.000000,1.000000,60.000000,FALSE,FALSE,FALSE,FALSE,0.000000,0.000000,FALSE,FALSE,TRUE,FALSE,FALSE,2,FALSE,31244,0.5,FALSE,2.4,100.000000,CL650, ,2021-12-30 22:59:45 ,6,TRUE,0,0,0,FALSE,0.000000,FALSE,FALSE,FALSE,FALSE,0.000000,0,FALSE,FALSE,FALSE,FALSE,FALSE,0.000000,FALSE,0.0,0
External,AGL 1000,0,-0.000000,-10223.589844,21.270000,0.000000,0.000000,FALSE,TRUE,FALSE,TRUE,TRUE,FALSE,0,FALSE,FALSE,0.000000,0.000000,0.000000,0.000000,0.000000,0.000000,1.000000,60.000000,FALSE,FALSE,FALSE,FALSE,0.000000,0.000000,FALSE,FALSE,FALSE,FALSE,FALSE,1,FALSE,31244,0.5,FALSE,2.4,100.000000,CL650, ,2021-12-30 22:59:45 ,6,TRUE,0,0,0,FALSE,0.000000,FALSE,FALSE,FALSE,FALSE,0.000000,0,FALSE,FALSE,FALSE,FALSE,FALSE,0.000000,FALSE,0.0,0
External,AGL 500,0,-0.000000,-10662.967773,21.270000,0.000000,0.000000,FALSE,TRUE,FALSE,TRUE,TRUE,FALSE,0,FALSE,FALSE,0.000000,0.000000,0.000000,0.000000,0.000000,0.000000,1.000000,60.000000,FALSE,FALSE,FALSE,FALSE,0.000000,0.000000,FALSE,FALSE,FALSE,FALSE,FALSE,1,FALSE,31244,0.5,FALSE,2.4,100.000000,CL650, ,2021-12-30 22:59:45 ,6,TRUE,0,0,0,FALSE,0.000000,FALSE,FALSE,FALSE,FALSE,0.000000,0,FALSE,FALSE,FALSE,FALSE,FALSE,0.000000,FALSE,0.0,0
Orbit,Orbit - 0,40,10.000000,0.000000,0.000000,270.000000,0.000000,FALSE,FALSE,FALSE,FALSE,FALSE,FALSE,0,TRUE,FALSE,0.000000,0.000000,0.000000,0.000000,0.000000,0.000000,1.000000,60.000000,FALSE,FALSE,TRUE,TRUE,0.000000,0.000000,FALSE,FALSE,FALSE,FALSE,FALSE,1,FALSE,31244,0.0,FALSE,2.4,100.000000,CL650, ,2021-12-30 22:59:45 ,7,TRUE,0,0,0,FALSE,0.000000,FALSE,FALSE,FALSE,FALSE,0.000000,0,FALSE,FALSE,FALSE,FALSE,FALSE,0.000000,FALSE,0.0,0
Orbit,Orbit - 1,0,9.848078,-0.520945,1.736481,279.336060,2.786246,FALSE,FALSE,FALSE,FALSE,FALSE,TRUE,0,TRUE,FALSE,0.000000,0.000000,0.000000,0.000000,0.000000,0.000000,1.000000,60.000000,FALSE,FALSE,TRUE,TRUE,0.000000,0.000000,FALSE,FALSE,TRUE,FALSE,FALSE,2,FALSE,31244,0.8,TRUE,2.4,100.000000,CL650, ,2021-12-30 22:59:45 ,7,TRUE,0,0,0,FALSE,0.000000,FALSE,FALSE,FALSE,FALSE,0.000000,0,FALSE,FALSE,FALSE,FALSE,FALSE,0.000000,FALSE,0.0,0
Orbit,Orbit - 2,0,9.396926,-1.026061,3.420201,280.000000,2.982098,FALSE,FALSE,FALSE,FALSE,FALSE,TRUE,0,TRUE,FALSE,0.000000,0.000000,0.000000,0.000000,0.000000,0.000000,1.000000,60.000000,FALSE,FALSE,TRUE,TRUE,0.000000,0.000000,FALSE,FALSE,TRUE,FALSE,FALSE,2,FALSE,31244,0.8,TRUE,2.4,100.000000,CL650, ,2021-12-30 22:59:45 ,7,TRUE,0,0,0,FALSE,0.000000,FALSE,FALSE,FALSE,FALSE,0.000000,0,FALSE,FALSE,FALSE,FALSE,FALSE,0.000000,FALSE,0.0,0
Orbit,Orbit - 3,0,8.660254,-1.500000,4.999999,292.795471,6.629908,FALSE,FALSE,FALSE,FALSE,FALSE,TRUE,0,TRUE,FALSE,0.000000,0.000000,0.000000,0.000000,0.000000,0.000000,1.000000,60.000000,FALSE,FALSE,TRUE,TRUE,0.000000,0.000000,FALSE,FALSE,TRUE,FALSE,FALSE,2,FALSE,31244,0.8,TRUE,2.4,100.000000,CL650, ,2021-12-30 22:59:45 ,7,TRUE,0,0,0,FALSE,0.000000,FALSE,FALSE,FALSE,FALSE,0.000000,0,FALSE,FALSE,FALSE,FALSE,FALSE,0.000000,FALSE,0.0,0
Orbit,Orbit - 4,0,7.660445,-1.928363,6.427875,308.754150,10.635929,FALSE,FALSE,FALSE,FALSE,FALSE,TRUE,0,TRUE,FALSE,0.000000,0.000000,0.000000,0.000000,0.000000,0.000000,1.000000,60.000000,FALSE,FALSE,TRUE,TRUE,0.000000,0.000000,FALSE,FALSE,TRUE,FALSE,FALSE,2,FALSE,31244,0.8,TRUE,2.4,100.000000,CL650, ,2021-12-30 22:59:45 ,7,TRUE,0,0,0,FALSE,0.000000,FALSE,FALSE,FALSE,FALSE,0.000000,0,FALSE,FALSE,FALSE,FALSE,FALSE,0.000000,FALSE,0.0,0
Orbit,Orbit - 5,0,6.427877,-2.298133,7.660443,319.475891,12.846064,FALSE,FALSE,FALSE,FALSE,FALSE,TRUE,0,TRUE,FALSE,0.000000,0.000000,0.000000,0.000000,0.000000,0.000000,1.000000,60.000000,FALSE,FALSE,TRUE,TRUE,0.000000,0.000000,FALSE,FALSE,TRUE,FALSE,FALSE,2,FALSE,31244,0.8,TRUE,2.4,100.000000,CL650, ,2021-12-30 22:59:45 ,7,TRUE,0,0,0,FALSE,0.000000,FALSE,FALSE,FALSE,FALSE,0.000000,0,FALSE,FALSE,FALSE,FALSE,FALSE,0.000000,FALSE,0.0,0
Orbit,Orbit - 6,0,5.000002,-2.598076,8.660254,329.475952,14.489635,FALSE,FALSE,FALSE,FALSE,FALSE,TRUE,0,TRUE,FALSE,0.000000,0.000000,0.000000,0.000000,0.000000,0.000000,1.000000,60.000000,FALSE,FALSE,TRUE,TRUE,0.000000,0.000000,FALSE,FALSE,TRUE,FALSE,FALSE,2,FALSE,31244,0.8,TRUE,2.4,100.000000,CL650, ,2021-12-30 22:59:45 ,7,TRUE,0,0,0,FALSE,0.000000,FALSE,FALSE,FALSE,FALSE,0.000000,0,FALSE,FALSE,FALSE,FALSE,FALSE,0.000000,FALSE,0.0,0
Orbit,Orbit - 7,0,3.420204,-2.819078,9.396926,339.475922,15.693100,FALSE,FALSE,FALSE,FALSE,FALSE,TRUE,0,TRUE,FALSE,0.000000,0.000000,0.000000,0.000000,0.000000,0.000000,1.000000,60.000000,FALSE,FALSE,TRUE,TRUE,0.000000,0.000000,FALSE,FALSE,TRUE,FALSE,FALSE,2,FALSE,31244,0.8,TRUE,2.4,100.000000,CL650, ,2021-12-30 22:59:45 ,7,TRUE,0,0,0,FALSE,0.000000,FALSE,FALSE,FALSE,FALSE,0.000000,0,FALSE,FALSE,FALSE,FALSE,FALSE,0.000000,FALSE,0.0,0
Orbit,Orbit - 8,0,1.736485,-2.954423,9.848078,349.475922,16.433617,FALSE,FALSE,FALSE,FALSE,FALSE,TRUE,0,TRUE,FALSE,0.000000,0.000000,0.000000,0.000000,0.000000,0.000000,1.000000,60.000000,FALSE,FALSE,TRUE,TRUE,0.000000,0.000000,FALSE,FALSE,TRUE,FALSE,FALSE,2,FALSE,31244,0.8,TRUE,2.4,100.000000,CL650, ,2021-12-30 22:59:45 ,7,TRUE,0,0,0,FALSE,0.000000,FALSE,FALSE,FALSE,FALSE,0.000000,0,FALSE,FALSE,FALSE,FALSE,FALSE,0.000000,FALSE,0.0,0
Orbit,Orbit - 9,0,-0.000000,-3.000000,10.000000,359.475952,16.698587,FALSE,FALSE,FALSE,FALSE,FALSE,TRUE,0,TRUE,FALSE,0.000000,0.000000,0.000000,0.000000,0.000000,0.000000,1.000000,60.000000,FALSE,FALSE,TRUE,TRUE,0.000000,0.000000,FALSE,FALSE,TRUE,FALSE,FALSE,2,FALSE,31244,0.8,TRUE,2.4,100.000000,CL650, ,2021-12-30 22:59:45 ,7,TRUE,0,0,0,FALSE,0.000000,FALSE,FALSE,FALSE,FALSE,0.000000,0,FALSE,FALSE,FALSE,FALSE,FALSE,0.000000,FALSE,0.0,0
Orbit,Orbit - 10,0,-1.736482,-2.954423,9.848078,9.475945,16.483818,FALSE,FALSE,FALSE,FALSE,FALSE,TRUE,0,TRUE,FALSE,0.000000,0.000000,0.000000,0.000000,0.000000,0.000000,1.000000,60.000000,FALSE,FALSE,TRUE,TRUE,0.000000,0.000000,FALSE,FALSE,TRUE,FALSE,FALSE,2,FALSE,31244,0.8,TRUE,2.4,100.000000,CL650, ,2021-12-30 22:59:45 ,7,TRUE,0,0,0,FALSE,0.000000,FALSE,FALSE,FALSE,FALSE,0.000000,0,FALSE,FALSE,FALSE,FALSE,FALSE,0.000000,FALSE,0.0,0
Orbit,Orbit - 11,0,-3.420201,-2.819078,9.396926,19.475945,15.792720,FALSE,FALSE,FALSE,FALSE,FALSE,TRUE,0,TRUE,FALSE,0.000000,0.000000,0.000000,0.000000,0.000000,0.000000,1.000000,60.000000,FALSE,FALSE,TRUE,TRUE,0.000000,0.000000,FALSE,FALSE,TRUE,FALSE,FALSE,2,FALSE,31244,0.8,TRUE,2.4,100.000000,CL650, ,2021-12-30 22:59:45 ,7,TRUE,0,0,0,FALSE,0.000000,FALSE,FALSE,FALSE,FALSE,0.000000,0,FALSE,FALSE,FALSE,FALSE,FALSE,0.000000,FALSE,0.0,0
Orbit,Orbit - 12,0,-5.000000,-2.598076,8.660254,29.475983,14.636920,FALSE,FALSE,FALSE,FALSE,FALSE,TRUE,0,TRUE,FALSE,0.000000,0.000000,0.000000,0.000000,0.000000,0.000000,1.000000,60.000000,FALSE,FALSE,TRUE,TRUE,0.000000,0.000000,FALSE,FALSE,TRUE,FALSE,FALSE,2,FALSE,31244,0.8,TRUE,2.4,100.000000,CL650, ,2021-12-30 22:59:45 ,7,TRUE,0,0,0,FALSE,0.000000,FALSE,FALSE,FALSE,FALSE,0.000000,0,FALSE,FALSE,FALSE,FALSE,FALSE,0.000000,FALSE,0.0,0
Orbit,Orbit - 13,0,-6.427876,-2.298134,7.660444,39.475967,13.038037,FALSE,FALSE,FALSE,FALSE,FALSE,TRUE,0,TRUE,FALSE,0.000000,0.000000,0.000000,0.000000,0.000000,0.000000,1.000000,60.000000,FALSE,FALSE,TRUE,TRUE,0.000000,0.000000,FALSE,FALSE,TRUE,FALSE,FALSE,2,FALSE,31244,0.8,TRUE,2.4,100.000000,CL650, ,2021-12-30 22:59:45 ,7,TRUE,0,0,0,FALSE,0.000000,FALSE,FALSE,FALSE,FALSE,0.000000,0,FALSE,FALSE,FALSE,FALSE,FALSE,0.000000,FALSE,0.0,0
Orbit,Orbit - 14,0,-7.660444,-1.928363,6.427876,49.475918,11.030356,FALSE,FALSE,FALSE,FALSE,FALSE,TRUE,0,TRUE,FALSE,0.000000,0.000000,0.000000,0.000000,0.000000,0.000000,1.000000,60.000000,FALSE,FALSE,TRUE,TRUE,0.000000,0.000000,FALSE,FALSE,TRUE,FALSE,FALSE,2,FALSE,31244,0.8,TRUE,2.4,100.000000,CL650, ,2021-12-30 22:59:45 ,7,TRUE,0,0,0,FALSE,0.000000,FALSE,FALSE,FALSE,FALSE,0.000000,0,FALSE,FALSE,FALSE,FALSE,FALSE,0.000000,FALSE,0.0,0
Orbit,Orbit - 15,0,-8.660254,-1.500000,5.000000,59.475960,8.663518,FALSE,FALSE,FALSE,FALSE,FALSE,TRUE,0,TRUE,FALSE,0.000000,0.000000,0.000000,0.000000,0.000000,0.000000,1.000000,60.000000,FALSE,FALSE,TRUE,TRUE,0.000000,0.000000,FALSE,FALSE,TRUE,FALSE,FALSE,2,FALSE,31244,0.8,TRUE,2.4,100.000000,CL650, ,2021-12-30 22:59:45 ,7,TRUE,0,0,0,FALSE,0.000000,FALSE,FALSE,FALSE,FALSE,0.000000,0,FALSE,FALSE,FALSE,FALSE,FALSE,0.000000,FALSE,0.0,0
Orbit,Orbit - 16,0,-9.396926,-1.026060,3.420202,70.000000,5.858387,FALSE,FALSE,FALSE,FALSE,FALSE,TRUE,0,TRUE,FALSE,0.000000,0.000000,0.000000,0.000000,0.000000,0.000000,1.000000,60.000000,FALSE,FALSE,TRUE,TRUE,0.000000,0.000000,FALSE,FALSE,TRUE,FALSE,FALSE,2,FALSE,31244,0.8,TRUE,2.4,100.000000,CL650, ,2021-12-30 22:59:45 ,7,TRUE,0,0,0,FALSE,0.000000,FALSE,FALSE,FALSE,FALSE,0.000000,0,FALSE,FALSE,FALSE,FALSE,FALSE,0.000000,FALSE,0.0,0
Orbit,Orbit - 17,0,-9.848078,-0.520945,1.736482,71.574326,5.416719,FALSE,FALSE,FALSE,FALSE,FALSE,TRUE,0,TRUE,FALSE,0.000000,0.000000,0.000000,0.000000,0.000000,0.000000,1.000000,60.000000,FALSE,FALSE,TRUE,TRUE,0.000000,0.000000,FALSE,FALSE,FALSE,FALSE,FALSE,1,FALSE,31244,0.8,TRUE,2.4,100.000000,CL650, ,2021-12-30 22:59:45 ,7,TRUE,0,0,0,FALSE,0.000000,FALSE,FALSE,FALSE,FALSE,0.000000,0,FALSE,FALSE,FALSE,FALSE,FALSE,0.000000,FALSE,0.0,0
Orbit,Orbit - 18,0,-10.000000,-0.000000,0.000000,89.475952,0.157213,FALSE,FALSE,FALSE,FALSE,FALSE,TRUE,0,TRUE,FALSE,0.000000,0.000000,0.000000,0.000000,0.000000,0.000000,1.000000,60.000000,FALSE,FALSE,TRUE,TRUE,0.000000,0.000000,FALSE,FALSE,TRUE,FALSE,FALSE,2,FALSE,31244,0.8,TRUE,2.4,100.000000,CL650, ,2021-12-30 22:59:45 ,7,TRUE,0,0,0,FALSE,0.000000,FALSE,FALSE,FALSE,FALSE,0.000000,0,FALSE,FALSE,FALSE,FALSE,FALSE,0.000000,FALSE,0.0,0
Orbit,Orbit - 19,0,-9.848078,0.520945,-1.736482,100.000000,357.017914,FALSE,FALSE,FALSE,FALSE,FALSE,TRUE,0,TRUE,FALSE,0.000000,0.000000,0.000000,0.000000,0.000000,0.000000,1.000000,60.000000,FALSE,FALSE,TRUE,TRUE,0.000000,0.000000,FALSE,FALSE,TRUE,FALSE,FALSE,2,FALSE,31244,0.8,TRUE,2.4,100.000000,CL650, ,2021-12-30 22:59:45 ,7,TRUE,0,0,0,FALSE,0.000000,FALSE,FALSE,FALSE,FALSE,0.000000,0,FALSE,FALSE,FALSE,FALSE,FALSE,0.000000,FALSE,0.0,0
Orbit,Orbit - 20,0,-9.396926,1.026061,-3.420201,106.318909,355.181641,FALSE,FALSE,FALSE,FALSE,FALSE,TRUE,0,TRUE,FALSE,0.000000,0.000000,0.000000,0.000000,0.000000,0.000000,1.000000,60.000000,FALSE,FALSE,TRUE,TRUE,0.000000,0.000000,FALSE,FALSE,FALSE,FALSE,FALSE,1,FALSE,31244,0.8,TRUE,2.4,100.000000,CL650, ,2021-12-30 22:59:45 ,7,TRUE,0,0,0,FALSE,0.000000,FALSE,FALSE,FALSE,FALSE,0.000000,0,FALSE,FALSE,FALSE,FALSE,FALSE,0.000000,FALSE,0.0,0
Orbit,Orbit - 21,0,-8.660254,1.500000,-5.000000,115.263840,352.703766,FALSE,FALSE,FALSE,FALSE,FALSE,TRUE,0,TRUE,FALSE,0.000000,0.000000,0.000000,0.000000,0.000000,0.000000,1.000000,60.000000,FALSE,FALSE,TRUE,TRUE,0.000000,0.000000,FALSE,FALSE,FALSE,FALSE,FALSE,1,FALSE,31244,0.8,TRUE,2.4,100.000000,CL650, ,2021-12-30 22:59:45 ,7,TRUE,0,0,0,FALSE,0.000000,FALSE,FALSE,FALSE,FALSE,0.000000,0,FALSE,FALSE,FALSE,FALSE,FALSE,0.000000,FALSE,0.0,0
Orbit,Orbit - 22,0,-7.660444,1.928363,-6.427876,125.791443,350.048676,FALSE,FALSE,FALSE,FALSE,FALSE,TRUE,0,TRUE,FALSE,0.000000,0.000000,0.000000,0.000000,0.000000,0.000000,1.000000,60.000000,FALSE,FALSE,TRUE,TRUE,0.000000,0.000000,FALSE,FALSE,FALSE,FALSE,FALSE,1,FALSE,31244,0.8,TRUE,2.4,100.000000,CL650, ,2021-12-30 22:59:45 ,7,TRUE,0,0,0,FALSE,0.000000,FALSE,FALSE,FALSE,FALSE,0.000000,0,FALSE,FALSE,FALSE,FALSE,FALSE,0.000000,FALSE,0.0,0
Orbit,Orbit - 23,0,-6.427876,2.298133,-7.660444,135.791412,347.863831,FALSE,FALSE,FALSE,FALSE,FALSE,TRUE,0,TRUE,FALSE,0.000000,0.000000,0.000000,0.000000,0.000000,0.000000,1.000000,60.000000,FALSE,FALSE,TRUE,TRUE,0.000000,0.000000,FALSE,FALSE,FALSE,FALSE,FALSE,1,FALSE,31244,0.8,TRUE,2.4,100.000000,CL650, ,2021-12-30 22:59:45 ,7,TRUE,0,0,0,FALSE,0.000000,FALSE,FALSE,FALSE,FALSE,0.000000,0,FALSE,FALSE,FALSE,FALSE,FALSE,0.000000,FALSE,0.0,0
Orbit,Orbit - 24,0,-5.000000,2.598076,-8.660254,144.736176,346.236359,FALSE,FALSE,FALSE,FALSE,FALSE,TRUE,0,TRUE,FALSE,0.000000,0.000000,0.000000,0.000000,0.000000,0.000000,1.000000,60.000000,FALSE,FALSE,TRUE,TRUE,0.000000,0.000000,FALSE,FALSE,FALSE,FALSE,FALSE,1,FALSE,31244,0.8,TRUE,2.4,100.000000,CL650, ,2021-12-30 22:59:45 ,7,TRUE,0,0,0,FALSE,0.000000,FALSE,FALSE,FALSE,FALSE,0.000000,0,FALSE,FALSE,FALSE,FALSE,FALSE,0.000000,FALSE,0.0,0
Orbit,Orbit - 25,0,-3.420202,2.819078,-9.396926,155.556946,344.724365,FALSE,FALSE,FALSE,FALSE,FALSE,TRUE,0,TRUE,FALSE,0.000000,0.000000,0.000000,0.000000,0.000000,0.000000,1.000000,60.000000,FALSE,FALSE,TRUE,TRUE,0.000000,0.000000,FALSE,FALSE,FALSE,FALSE,FALSE,1,FALSE,31244,0.8,TRUE,2.4,100.000000,CL650, ,2021-12-30 22:59:45 ,7,TRUE,0,0,0,FALSE,0.000000,FALSE,FALSE,FALSE,FALSE,0.000000,0,FALSE,FALSE,FALSE,FALSE,FALSE,0.000000,FALSE,0.0,0
Orbit,Orbit - 26,0,-1.736483,2.954423,-9.848078,169.446808,343.567871,FALSE,FALSE,FALSE,FALSE,FALSE,TRUE,0,TRUE,FALSE,0.000000,0.000000,0.000000,0.000000,0.000000,0.000000,1.000000,60.000000,FALSE,FALSE,TRUE,TRUE,0.000000,0.000000,FALSE,FALSE,TRUE,FALSE,FALSE,2,FALSE,31244,0.8,TRUE,2.4,100.000000,CL650, ,2021-12-30 22:59:45 ,7,TRUE,0,0,0,FALSE,0.000000,FALSE,FALSE,FALSE,FALSE,0.000000,0,FALSE,FALSE,FALSE,FALSE,FALSE,0.000000,FALSE,0.0,0
Orbit,Orbit - 27,0,0.000001,3.000000,-10.000000,171.107208,343.490509,FALSE,FALSE,FALSE,FALSE,FALSE,TRUE,0,TRUE,FALSE,0.000000,0.000000,0.000000,0.000000,0.000000,0.000000,1.000000,60.000000,FALSE,FALSE,TRUE,TRUE,0.000000,0.000000,FALSE,FALSE,FALSE,FALSE,FALSE,1,FALSE,31244,0.8,TRUE,2.4,100.000000,CL650, ,2021-12-30 22:59:45 ,7,TRUE,0,0,0,FALSE,0.000000,FALSE,FALSE,FALSE,FALSE,0.000000,0,FALSE,FALSE,FALSE,FALSE,FALSE,0.000000,FALSE,0.0,0
Orbit,Orbit - 28,0,1.736482,2.954423,-9.848078,189.446808,343.514862,FALSE,FALSE,FALSE,FALSE,FALSE,TRUE,0,TRUE,FALSE,0.000000,0.000000,0.000000,0.000000,0.000000,0.000000,1.000000,60.000000,FALSE,FALSE,TRUE,TRUE,0.000000,0.000000,FALSE,FALSE,TRUE,FALSE,FALSE,2,FALSE,31244,0.8,TRUE,2.4,100.000000,CL650, ,2021-12-30 22:59:45 ,7,TRUE,0,0,0,FALSE,0.000000,FALSE,FALSE,FALSE,FALSE,0.000000,0,FALSE,FALSE,FALSE,FALSE,FALSE,0.000000,FALSE,0.0,0
Orbit,Orbit - 29,0,3.420202,2.819078,-9.396926,198.338058,344.104889,FALSE,FALSE,FALSE,FALSE,FALSE,TRUE,0,TRUE,FALSE,0.000000,0.000000,0.000000,0.000000,0.000000,0.000000,1.000000,60.000000,FALSE,FALSE,TRUE,TRUE,0.000000,0.000000,FALSE,FALSE,FALSE,FALSE,FALSE,1,FALSE,31244,0.8,TRUE,2.4,100.000000,CL650, ,2021-12-30 22:59:45 ,7,TRUE,0,0,0,FALSE,0.000000,FALSE,FALSE,FALSE,FALSE,0.000000,0,FALSE,FALSE,FALSE,FALSE,FALSE,0.000000,FALSE,0.0,0
Orbit,Orbit - 30,0,5.000000,2.598076,-8.660254,206.670441,344.992950,FALSE,FALSE,FALSE,FALSE,FALSE,TRUE,0,TRUE,FALSE,0.000000,0.000000,0.000000,0.000000,0.000000,0.000000,1.000000,60.000000,FALSE,FALSE,TRUE,TRUE,0.000000,0.000000,FALSE,FALSE,FALSE,FALSE,FALSE,1,FALSE,31244,0.8,TRUE,2.4,100.000000,CL650, ,2021-12-30 22:59:45 ,7,TRUE,0,0,0,FALSE,0.000000,FALSE,FALSE,FALSE,FALSE,0.000000,0,FALSE,FALSE,FALSE,FALSE,FALSE,0.000000,FALSE,0.0,0
Orbit,Orbit - 31,0,6.427876,2.298133,-7.660445,215.556961,346.284454,FALSE,FALSE,FALSE,FALSE,FALSE,TRUE,0,TRUE,FALSE,0.000000,0.000000,0.000000,0.000000,0.000000,0.000000,1.000000,60.000000,FALSE,FALSE,TRUE,TRUE,0.000000,0.000000,FALSE,FALSE,FALSE,FALSE,FALSE,1,FALSE,31244,0.8,TRUE,2.4,100.000000,CL650, ,2021-12-30 22:59:45 ,7,TRUE,0,0,0,FALSE,0.000000,FALSE,FALSE,FALSE,FALSE,0.000000,0,FALSE,FALSE,FALSE,FALSE,FALSE,0.000000,FALSE,0.0,0
Orbit,Orbit - 32,0,7.660446,1.928363,-6.427875,226.113815,348.251740,FALSE,FALSE,FALSE,FALSE,FALSE,TRUE,0,TRUE,FALSE,0.000000,0.000000,0.000000,0.000000,0.000000,0.000000,1.000000,60.000000,FALSE,FALSE,TRUE,TRUE,0.000000,0.000000,FALSE,FALSE,FALSE,FALSE,FALSE,1,FALSE,31244,0.8,TRUE,2.4,100.000000,CL650, ,2021-12-30 22:59:45 ,7,TRUE,0,0,0,FALSE,0.000000,FALSE,FALSE,FALSE,FALSE,0.000000,0,FALSE,FALSE,FALSE,FALSE,FALSE,0.000000,FALSE,0.0,0
Orbit,Orbit - 33,0,8.660254,1.500000,-4.999999,235.556976,350.369995,FALSE,FALSE,FALSE,FALSE,FALSE,TRUE,0,TRUE,FALSE,0.000000,0.000000,0.000000,0.000000,0.000000,0.000000,1.000000,60.000000,FALSE,FALSE,TRUE,TRUE,0.000000,0.000000,FALSE,FALSE,FALSE,FALSE,FALSE,1,FALSE,31244,0.8,TRUE,2.4,100.000000,CL650, ,2021-12-30 22:59:45 ,7,TRUE,0,0,0,FALSE,0.000000,FALSE,FALSE,FALSE,FALSE,0.000000,0,FALSE,FALSE,FALSE,FALSE,FALSE,0.000000,FALSE,0.0,0
Orbit,Orbit - 34,0,9.396927,1.026060,-3.420201,247.226761,353.376160,FALSE,FALSE,FALSE,FALSE,FALSE,TRUE,0,TRUE,FALSE,0.000000,0.000000,0.000000,0.000000,0.000000,0.000000,1.000000,60.000000,FALSE,FALSE,TRUE,TRUE,0.000000,0.000000,FALSE,FALSE,FALSE,FALSE,FALSE,1,FALSE,31244,0.8,TRUE,2.4,100.000000,CL650, ,2021-12-30 22:59:45 ,7,TRUE,0,0,0,FALSE,0.000000,FALSE,FALSE,FALSE,FALSE,0.000000,0,FALSE,FALSE,FALSE,FALSE,FALSE,0.000000,FALSE,0.0,0
Orbit,Orbit - 35,0,9.848078,0.520945,-1.736481,256.113800,355.881897,FALSE,FALSE,FALSE,FALSE,FALSE,TRUE,0,TRUE,FALSE,0.000000,0.000000,0.000000,0.000000,0.000000,0.000000,1.000000,60.000000,FALSE,FALSE,TRUE,TRUE,0.000000,0.000000,FALSE,FALSE,FALSE,FALSE,FALSE,1,FALSE,31244,0.8,TRUE,2.4,100.000000,CL650, ,2021-12-30 22:59:45 ,7,TRUE,0,0,0,FALSE,0.000000,FALSE,FALSE,FALSE,FALSE,0.000000,0,FALSE,FALSE,FALSE,FALSE,FALSE,0.000000,FALSE,0.0,0
Orbit,Orbit - 36,0,10.000000,-0.000000,-0.000000,265.556946,358.668671,FALSE,FALSE,FALSE,FALSE,FALSE,TRUE,0,FALSE,FALSE,0.000000,0.000000,0.000000,0.000000,0.000000,0.000000,1.000000,60.000000,FALSE,FALSE,TRUE,TRUE,0.000000,0.000000,FALSE,FALSE,FALSE,FALSE,FALSE,1,FALSE,31244,0.8,TRUE,2.4,100.000000,CL650, ,2021-12-30 22:59:45 ,7,TRUE,0,0,0,FALSE,0.000000,FALSE,FALSE,FALSE,FALSE,0.000000,0,FALSE,FALSE,FALSE,FALSE,FALSE,0.000000,FALSE,0.0,0
